route_id,stop_name,stop_id,stop_sequence,stop_lat,stop_lon,shape_id
BQ88,v.le ungheria,16084,1,45.4454924645648,9.24881935902843,10320
BQ88,rogoredo m3,16078,2,45.4331185802075,9.24009957772113,10320
BQ86,via s. monica v.le testi,17161,1,45.5115976040113,9.2023755816582,7231
BQ86,precotto m1,12562,2,45.5124066823399,9.22429433710687,7231
BQ86,cascina gobba m2,16767,3,45.5113927542714,9.26012785804997,7231
BQ79,gratosoglio,11090,1,45.4037457303297,9.17316253545344,7170
BQ79,p.za abbiategrasso m2,11134,2,45.4306574395196,9.17702931465283,7170
BQ78,san siro stadio m5,17530,1,45.4763367825204,9.11844184495317,8213
BQ78,lotto (fieramilanocity) m1 m5,10658,2,45.4787328233094,9.14420147084575,8213
BQ78,via govone,11007,3,45.4925647314605,9.16290016726909,8213
BQ76,bisceglie m1,10211,1,45.4552419968318,9.11214601394273,10733
BQ76,p.za madonna della provvidenza,10181,2,45.4764057067608,9.08896817272877,10733
BQ75,stazione lambrate m2,16723,1,45.4849299758273,9.23634831675352,6618
BQ75,"via rizzoli, 45",12889,2,45.506897824267,9.25312595458801,6618
BQ68,molino dorino m1,10192,1,45.504898366019,9.0938949665694,6647
BQ68,"via appennini, 179",10124,2,45.5057253728457,9.09870888532627,6647
BQ68,uruguay m1,10291,3,45.4935045600791,9.12044569209477,6647
BQ55,loreto m1 m2,12212,1,45.4858889044849,9.21564757421325,11175
BQ55,stazione lambrate m2,16723,2,45.4849299758273,9.23634831675352,11175
BQ52,niguarda (parco nord),17144,1,45.5245414516849,9.19173165293464,10826
BQ52,bicocca m5,12004,2,45.5154855518772,9.20488954047317,10826
BQ46,cantalupa (area di servizio),16735,1,45.4193756335724,9.15768928999441,10550
BQ46,famagosta m2,15602,2,45.437277340391,9.16927844050092,10550
BQ45,forlanini,16689,1,45.4619142609243,9.23629646230014,6588
BQ45,san donato m3,12812,2,45.428703696389,9.25560336355396,6588
BQ44,cascina gobba m2,12899,1,45.5113147408364,9.26030084259289,10823
BQ44,gorla m1,12554,2,45.5062047089649,9.22253540914223,10823
BQ41,affori fn m3,17139,1,45.5215983877148,9.16835997008441,10820
BQ41,q.re bovisasca,11032,2,45.5150974361922,9.16053911699792,10820
BQ39,stazione lambrate m2,16723,1,45.4849299758273,9.23634831675352,10819
BQ39,via pitteri via rubattino,12693,2,45.4759691444114,9.2470102294745,10819
BQ34,brenta m3,12041,1,45.4422964483133,9.21802279175884,10818
BQ34,noverasco (opera),15240,2,45.3949209512116,9.21240310502202,10818
BNM3,duomo m1 m3,11516,1,45.4618671041785,9.19056396479289,10045
BNM3,missori m3,11510,2,45.4602031189369,9.18884205885316,10045
BNM3,c.so p.ta romana via s. sofia,11519,3,45.4577181934169,9.19309401758225,10045
BNM3,crocetta m3,11760,4,45.4556942276866,9.19638700537106,10045
BNM3,p.ta romana m3,11776,5,45.451415271827,9.20329693970354,10045
BNM3,c.so lodi via friuli,12044,6,45.4481423134121,9.20868084385921,10045
BNM3,lodi m3,12031,7,45.4467213343642,9.21091479955887,10045
BNM3,brenta m3,12040,8,45.4428934103027,9.21784478379097,10045
BNM3,corvetto m3,12347,9,45.440437424586,9.2229687202762,10045
BNM3,porto di mare m3,12964,10,45.4378774719723,9.23181663500336,10045
BNM3,cassinis,18132,11,45.4342426533436,9.2366056996442,10045
BNM3,rogoredo m3,12599,12,45.4323645907622,9.24029657993644,10045
BNM3,san donato m3,12809,13,45.4288656780491,9.25568837272896,10045
BNM3,san donato m3,12811,14,45.4293947106473,9.25679535624325,10045
BNM2,p.za abbiategrasso m2,16932,1,45.4306624359508,9.17679535495107,10042
BNM2,famagosta m2,11113,2,45.4376903432579,9.1684143998792,10042
BNM2,p.za miani,10800,3,45.4382632530917,9.15523755399269,10042
BNM2,via e. ponti p.za bilbao,17459,4,45.4427702136578,9.15721456125261,10042
BNM2,v.le cassala,10816,5,45.4443162480079,9.1622394304521,10042
BNM2,romolo m2,12943,6,45.4435152808071,9.16767936759714,10042
BNM2,p.ta genova m2,11178,7,45.4527701741657,9.1701013454119,10042
BNM2,c.so colombo p.le cantore,11193,8,45.4549271560948,9.17224924788572,10042
BNM2,s. agostino m2,17770,9,45.4600541170154,9.17156322298515,10042
BNM2,carducci,18128,10,45.4628105633943,9.17395247868598,10042
BNM2,cadorna m1 m2,11273,11,45.4674770167676,9.17671413831676,10042
BNM2,cairoli m1,11525,12,45.4677080393531,9.18105712775025,10042
BNM2,lanza m2,16919,13,45.4723429569661,9.1816190412719,10042
BNM2,p.za lega lombarda,17704,14,45.4781213004738,9.18090071215028,10042
BNM2,via farini via ferrari,11590,15,45.4855098277167,9.18281296976863,10042
BNM2,stazione garibaldi m2 m5,15666,16,45.4835383466972,9.18633850906153,10042
BNM2,gioia m2,11868,17,45.484868872199,9.19566486478651,10042
BNM2,stazione centrale via tonale,11928,18,45.4880698405878,9.20418873945873,10042
BNM2,caiazzo m2,12185,19,45.4854729072642,9.20939660808952,10042
BNM2,loreto m1 m2,12210,20,45.4842369402284,9.21575655947452,10042
BNM2,piola m2,12487,21,45.4807649882457,9.22537646762842,10042
BNM2,stazione lambrate m2,12712,22,45.4847259633043,9.23649830400053,10042
BNM2,udine m2,12735,23,45.4905139607554,9.23706127344271,10042
BNM2,cimiano m2,12766,24,45.4994588736787,9.23998819025148,10042
BNM2,crescenzago m2,12782,25,45.5050227630479,9.24729906427287,10042
BNM2,"via padova, 353",12892,26,45.5115697574638,9.25576492638876,10042
BNM2,cascina gobba m2,13807,27,45.5114237561134,9.26034589446469,10042
BNM1,duomo m1 m3,16929,1,45.4617001553105,9.1893220581151,9733
BNM1,duomo m1 m3,11503,2,45.463254089597,9.18856300373474,9733
BNM1,via orefici p.za cordusio,11491,3,45.4645690826372,9.18722703026785,9733
BNM1,cordusio m1,11494,4,45.4658520731172,9.18547106510045,9733
BNM1,via meravigli,11483,5,45.4657100843601,9.18104515294108,9733
BNM1,cadorna m1 m2,11273,6,45.4674770167676,9.17671413831676,9733
BNM1,conciliazione m1,11244,7,45.467647022601,9.16554528980617,9733
BNM1,pagano m1,16935,8,45.4685489422146,9.15946534542055,9733
BNM1,buonarroti m1,10908,9,45.4709559235388,9.15469043260485,9733
BNM1,amendola (fieramilanocity) m1,10900,10,45.473660909418,9.15110745080934,9733
BNM1,lotto (fieramilanocity) m1 m5,17533,11,45.4789458102243,9.14422548839709,9733
BNM1,qt8 m1,10447,12,45.4864887109349,9.136206545342,9733
BNM1,lampugnano m1,15300,13,45.4885486400475,9.12700367353525,9733
BNM1,via omodeo via cechov,16936,14,45.4925855829919,9.11701574742409,9733
BNM1,via cechov via bacchelli,10122,15,45.4951315193557,9.11330379007391,9733
BNM1,s. leonardo m1,10104,16,45.5002864080939,9.09988693232855,9733
BNM1,molino dorino m1,10192,17,45.504898366019,9.0938949665694,9733
BN27,duomo m1 m3,16929,1,45.4617001553105,9.1893220581151,9667
BN27,via larga,11794,2,45.4627781401537,9.19456395380851,9667
BN27,l.go augusto,11798,3,45.462537160389,9.19785491803363,9667
BN27,palazzo di giustizia,11816,4,45.4623001537483,9.20077685716806,9667
BN27,c.so p.ta vittoria (camera del lavoro),11823,5,45.4622751421515,9.20382684463351,9667
BN27,p.za cinque giornate,12094,6,45.4622111782892,9.20875575639384,9667
BN27,p.za s. maria del suffragio,12099,7,45.4621901552634,9.21104178227657,9667
BN27,via cadore c.so ventidue marzo,12108,8,45.4621872019833,9.21427674341147,9667
BN27,p.za emilia,12126,9,45.4621612235296,9.21854265064629,9667
BN27,p.za grandi,12390,10,45.4621661853892,9.22106567289266,9667
BN27,v.le campania v.le corsica,12392,11,45.4621342092355,9.22346556401549,9667
BN27,v.le corsica via lomellina,12402,12,45.4622341958362,9.22948752608532,9667
BN27,v.le corsica via negroli,12407,13,45.4621832164951,9.2319625424855,9667
BN27,forlanini,12646,14,45.4620092411579,9.23614845317218,9667
BN27,via repetti,17043,15,45.4614983000652,9.23794842439486,9667
BN27,via marco bruto,17044,16,45.4593932991779,9.23899440362304,9667
BN27,p.za ovidio,17045,17,45.4581322669119,9.24072241735549,9667
BN27,"via mecenate, 77",17047,18,45.4528423518192,9.24784934795365,9667
BN27,via mecenate via fantoli,12831,19,45.4504604023307,9.25105034734703,9667
BN27,via mecenate via quintiliano,12837,20,45.448962439539,9.25311030860492,9667
BN27,v.le ungheria via mecenate,17697,21,45.4469044669156,9.25459494981988,9667
BN27,v.le ungheria l.go guerrieri gonzaga,17698,22,45.4462532207007,9.25266571718344,9667
BN27,v.le ungheria via del liri,17699,23,45.4460932098774,9.24901327695185,9667
BN27,v.le ungheria,17700,24,45.4459178006262,9.24531070366758,9667
BN27,v.le ungheria via salomone,12615,25,45.4457074448914,9.24303047149909,9667
BN27,v.le ungheria via salomone,12614,26,45.4456524322128,9.24342344351552,9667
BN26,stazione centrale m2 m3,11885,1,45.4862708699739,9.20202369889306,9970
BN26,stazione centrale p.za duca d'aosta m2 m3,11889,2,45.484230922836,9.20316572035483,9970
BN26,via vitruvio,11893,3,45.4824859348558,9.20640572171988,9970
BN26,lima m1,12187,4,45.4802679582444,9.21053865912487,9970
BN26,via plinio via eustachi,12194,5,45.4782050081227,9.214369636541,9970
BN26,p.za adelaide di savoia,12147,6,45.4735410550727,9.21469564067467,9970
BN26,c.so indipendenza via bronzetti,12143,7,45.4688201222815,9.21464267018502,9970
BN26,via cadore c.so ventidue marzo,12109,8,45.4625291919964,9.21460770649445,9970
BN26,p.za s. maria del suffragio,12098,9,45.4622821817372,9.21162277559805,9970
BN26,p.za cinque giornate,12095,10,45.4623021841201,9.20802777322981,9970
BN26,v.le regina margherita via besana,11828,11,45.4597511943306,9.20606084299749,9970
BN26,v.le regina margherita via lamarmora,11821,12,45.4577672343075,9.20456884266969,9970
BN26,p.ta romana m3,17588,13,45.4513562951491,9.20227290310555,9970
BN26,via ripamonti v.le sabotino,11767,14,45.4509802466478,9.19711898761297,9970
BN26,via bocconi,11471,15,45.4509822432453,9.19060208558409,9970
BN26,porta lodovica,11460,16,45.4517802276264,9.18711312846187,9970
BN26,v.le col di lana,11452,17,45.452138235023,9.18346815182067,9970
BN26,p.za ventiquattro maggio,17559,18,45.4524041894855,9.17959821044041,9970
BN26,via vigevano v.le gorizia,11199,19,45.4527502071882,9.17624923820362,9970
BN26,p.ta genova m2,11182,20,45.4532931412388,9.17049032240307,9970
BN26,c.so colombo p.le cantore,11193,21,45.4549271560948,9.17224924788572,9970
BN26,v.le coni zugna via solari,11184,22,45.4574701113886,9.16898029645406,9970
BN26,p.le aquileia,17038,23,45.4612610262082,9.16364338131433,9970
BN26,conciliazione m1,11242,24,45.4673629830869,9.1653073266243,9970
BN26,cadorna m1 m2,16895,25,45.4677840494074,9.17588617751805,9970
BN26,cadorna m1 m2,11277,26,45.4689510255387,9.17675312504025,9970
BN25,stazione centrale m2 m3,16875,1,45.4866238645082,9.20253769170821,10011
BN25,p.za s. gioachimo,12991,2,45.4814609463724,9.19807882565433,10011
BN25,stazione garibaldi m2 m5,15671,3,45.4838198647302,9.18718388895273,10011
BN25,via farini via ferrari,11589,4,45.4858738416714,9.18245500447822,10011
BN25,via procaccini via messina,17837,5,45.4842114471717,9.17567856776696,10011
BN25,p.za gramsci,11290,6,45.4820308554856,9.16802316266376,10011
BN25,c.so sempione prima di via canova,18022,7,45.4778160671095,9.16884020706606,10011
BN25,triennale,11265,8,45.4713799767241,9.17316620915132,10011
BN25,cadorna m1 m2,11275,9,45.4687670294876,9.17745215427224,10011
BN24,duomo m1 m3,16929,1,45.4617001553105,9.1893220581151,9709
BN24,missori m3,17855,2,45.4602138283424,9.19020048227741,9709
BN24,c.so p.ta romana via s. sofia,11519,3,45.4577181934169,9.19309401758225,9709
BN24,crocetta m3,11754,4,45.4554252030503,9.19558997704454,9709
BN24,c.so p.ta vigentina,11759,5,45.4536422385832,9.19605402137852,9709
BN24,via ripamonti v.le sabotino,11757,6,45.4511612858444,9.19664000237604,9709
BN24,via ripamonti via bellezza,11766,7,45.448878284131,9.19732400593477,9709
BN24,v.le isonzo via ripamonti,11737,8,45.4467323035161,9.19792502386793,9709
BN24,via ripamonti via lorenzini,17057,9,45.443002349307,9.19881700313443,9709
BN24,via ripamonti via serio,17058,10,45.4404963743273,9.19967806618038,9709
BN24,via ripamonti via barletta,11716,11,45.4377364410799,9.20019603108639,9709
BN24,via ripamonti via quaranta,11715,12,45.4362044474706,9.20050701344464,9709
BN24,via ripamonti via dell'assunta,11713,13,45.433312477515,9.20105500408078,9709
BN24,via ripamonti via noto,11721,14,45.4317824776038,9.20153504024541,9709
BN24,via ripamonti via val di sole,11718,15,45.4288305197425,9.20228606745623,9709
BN24,via ripamonti via chopin,11703,16,45.4249195706041,9.2034640683758,9709
BN24,vigentino,11706,17,45.4218215946562,9.20296711032554,9709
BN24,vigentino,15081,18,45.421481628141,9.2032760891585,9709
BN15,duomo m1 m3,16929,1,45.4617001553105,9.1893220581151,9665
BN15,c.so italia (missori m3),11498,2,45.4593111474841,9.1878500813527,9665
BN15,c.so italia via s. sofia,11465,3,45.4566881770133,9.18739805922845,9665
BN15,c.so italia via lusardi,11462,4,45.4540732129878,9.18694610581698,9665
BN15,v.le col di lana,11452,5,45.452138235023,9.18346815182067,9665
BN15,p.za ventiquattro maggio,11447,6,45.4522982122579,9.18108815893588,9665
BN15,c.so s. gottardo via lagrange,11442,7,45.4490062682305,9.17964222908013,9665
BN15,l.go mahler,11169,8,45.4457982711276,9.17926126402078,9665
BN15,v.le tibaldi via meda,11168,9,45.4437873231536,9.17897827875592,9665
BN15,via meda via spaventa,11164,10,45.4413313357052,9.17864530469461,9665
BN15,via montegani v.le da cermenate,11162,11,45.4381613367409,9.17830426370013,9665
BN15,via montegani via palmieri,11138,12,45.4351203898162,9.17790431129525,9665
BN15,via montegani via neera,11135,13,45.4332394096305,9.17766532261367,9665
BN15,p.za abbiategrasso m2,16843,14,45.4295544407083,9.17759132430129,9665
BN15,via dei missaglia via boifava,16901,15,45.4265484843686,9.17734342528201,9665
BN15,via dei missaglia (isola anita),16903,16,45.4227185243368,9.17703938415398,9665
BN15,via dei missaglia via de ruggiero,16904,17,45.418174567813,9.17554546798886,9665
BN15,via dei missaglia via feraboli,16905,18,45.4140346148858,9.17494249812357,9665
BN15,via dei missaglia via saponaro,16906,19,45.4099856903561,9.17442551767205,9665
BN15,via dei missaglia (scuola santarosa),16907,20,45.406730704557,9.17479354646953,9665
BN15,gratosoglio,15270,21,45.4030607251815,9.17369855444033,9665
B99,vigentino,15086,1,45.4211306161312,9.20374807889244,9314
B99,via ripamonti (ist. europeo oncologia),11701,2,45.4131347219891,9.20626706474095,9314
B99,"via ripamonti, 514",12011,3,45.4062757966393,9.20800407767419,9314
B99,via ripamonti via quintosole,12012,4,45.4031788325772,9.20881111563063,9314
B99,casa di reclusione (opera),11702,5,45.3991518713992,9.20598616005545,9314
B99,"ss 412, 1 (opera)",13421,6,45.3946969465132,9.21092213648276,9314
B99,noverasco (opera),15240,7,45.3949209512116,9.21240310502202,9314
B98,bande nere m1,10387,1,45.4623309876943,9.13659266946253,7820
B98,via d'alviano via tuberose,10567,2,45.4584880144052,9.1384017135374,7820
B98,via soderini via d'alviano,10545,3,45.4555250240977,9.14010163403458,7820
B98,p.za frattini,10549,4,45.4512371091954,9.14237469983367,7820
B98,via brunelleschi,10551,5,45.4487281497682,9.14391263668807,7820
B98,via l. il moro cavalcavia don milani,10527,6,45.4453341753525,9.14614263134752,7820
B98,p.za ohm,10533,7,45.4418781946782,9.14871866916708,7820
B98,via s. rita via bari,10796,8,45.4393092595575,9.15202462281175,7820
B98,via s. rita p.za miani,10798,9,45.4380562989363,9.1536105970355,7820
B98,via voltri via ovada,10770,10,45.4361263245811,9.15449961399295,7820
B98,via voltri via di rudini',10763,11,45.4343803776922,9.15446159856847,7820
B98,ospedale san paolo,10781,12,45.4329843717687,9.15886656091789,7820
B98,via s. vigilio (pronto soccorso),16071,13,45.4338023878775,9.16254951453768,7820
B98,via s. vigilio via s. paolino,10792,14,45.4346873779451,9.16382848935411,7820
B98,famagosta m2,17479,15,45.4367753520696,9.16872644294071,7820
B965,Via Milano (Scuole) (Pioltello),16463,1,45.5016150808616,9.33464899388862,7612
B965,Via Milano (Scuole) (Pioltello),16464,2,45.5019300836386,9.33459502176909,7612
B965,Via Mozart Via Cimarosa (Pioltello),16465,3,45.5047290648751,9.33336897860693,7612
B965,Via Tiepolo (Pioltello),16499,4,45.5061170435025,9.33135703176676,7612
B965,Via Perugino (Pioltello),16500,5,45.5061160036537,9.32961504186813,7612
B965,Via Nenni Via Roma (Pioltello),16501,6,45.5093739474773,9.32713204504775,7612
B965,Via Moro Via Togliatti (Pioltello),16502,7,45.5055549717013,9.32627609382026,7612
B965,Via Virgilio Via Moro (Pioltello),16503,8,45.5021230677575,9.32554112713535,7612
B965,Str.Cassanese Via Milano (Pioltello),16504,9,45.4996340755831,9.31370029413541,7612
B965,Via Cassanese Via Di Vittorio (Segrate),16505,10,45.4977689891449,9.30006849298277,7612
B965,Via Cassanese Via Giovanni XXIII (Segrate),16506,11,45.496986030451,9.29334254544825,7612
B965,via cassanese via monzese (segrate),16507,12,45.4961179893868,9.28822858380449,7612
B965,via cassanese via marconi (segrate),16014,13,45.4935880158449,9.27712677518376,7612
B965,via cassanese via radaelli (segrate),15201,14,45.4912990032562,9.26802891363105,7612
B965,q.re feltre,12728,15,45.4868239937147,9.24539018526857,7612
B965,p.za gobetti,12510,16,45.4857419467365,9.23323736917948,7612
B965,via pecchio v.le abruzzi,12228,17,45.4844249540003,9.21774355156718,7612
B965,P.za Aspromonte,16509,18,45.4843109545913,9.21956757267253,7612
B95,cassinis,18132,1,45.4342426533436,9.2366056996442,10158
B95,via cassinis via pallia,12960,2,45.4357625788426,9.23363262218455,10158
B95,porto di mare m3,12961,3,45.437209518234,9.2303286557949,10158
B95,via marochetti via avezzana,12962,4,45.43888252393,9.22679568668457,10158
B95,corvetto m3,12346,5,45.439644476885,9.22329171146042,10158
B95,via polesine p.le ferrara,12343,6,45.4386814969019,9.2211767821514,10158
B95,via comacchio p.za angilberto ii,12026,7,45.4373285027093,9.21827480318703,10158
B95,via d'agrate p.za angilberto ii,12024,8,45.4368784872357,9.21547085764565,10158
B95,via d'agrate via cassano d'adda,12021,9,45.4369524801957,9.2124058747586,10158
B95,via quaranta via d'agrate,12020,10,45.4369664466514,9.20968894947737,10158
B95,via quaranta via gargano,11731,11,45.4366964731141,9.20673993832255,10158
B95,via ripamonti via quaranta,11726,12,45.436184461148,9.20128004851809,10158
B95,p.za chiaradia,11709,13,45.4373044005382,9.19641609168836,10158
B95,via antonini via verro,11708,14,45.4373344337408,9.19469314598119,10158
B95,via antonini via lampedusa,11417,15,45.4374024206165,9.18889717570348,10158
B95,v.le da cermenate via lusitania,11412,16,45.4374343787267,9.18631122698063,10158
B95,v.le da cermenate via volvinio,11404,17,45.43747140244,9.18260424715314,10158
B95,via montegani v.le da cermenate,11140,18,45.4374883712705,9.1791852886985,10158
B95,p.za maggi,11118,19,45.4379823338981,9.17081236069699,10158
B95,famagosta m2,11113,20,45.4376903432579,9.1684143998792,10158
B95,v.le famagosta via lope de vega,10789,21,45.4374323600346,9.16215948942522,10158
B95,v.le famagosta via venosta,10777,22,45.4373153242217,9.15794156971123,10158
B95,via s. rita p.za miani,10799,23,45.4382082686011,9.15390263357742,10158
B95,via s. rita via bari,10797,24,45.4400442713444,9.15153362870132,10158
B95,via tobagi via s. rita,17462,25,45.4409092124119,9.14892963931903,10158
B95,via tobagi via olgiati,17460,26,45.4400732419511,9.1460697200844,10158
B95,via tobagi v.le faenza,17461,27,45.4392452468393,9.14325176277704,10158
B95,via giussani,10516,28,45.4409481859895,9.13986277767204,10158
B95,via pepere via giussani,10513,29,45.4398612166548,9.13801477267166,10158
B95,q.re barona,10510,30,45.4381222456143,9.13897677426075,10158
B94,cadorna m1 m2,11275,1,45.4687670294876,9.17745215427224,10619
B94,cadorna m1 m2,11274,2,45.4673110019221,9.17643513670928,10619
B94,carducci ,18827,3,45.4650503426654,9.17499708131946,10619
B94,carducci,18127,4,45.462827596516,9.17382597631927,10619
B94,s. ambrogio m2,11221,5,45.4612211023047,9.17381521767107,10619
B94,p.za resistenza partigiana,11235,6,45.459119112538,9.17708918449331,10619
B94,colonne di s. lorenzo,11475,7,45.4572631248541,9.18135614093884,10619
B94,via molino delle armi p.za vetra,11449,8,45.4568771701907,9.18289013429346,10619
B94,c.so italia via s. sofia,11468,9,45.4560191817124,9.18718908268469,10619
B94,via s. sofia via s. senatore,11472,10,45.4569311556992,9.1903740326863,10619
B94,ospedale policlinico,11790,11,45.4587191727878,9.19462796028581,10619
B94,via f. sforza via andreani,11795,12,45.4604691474568,9.19622097849593,10619
B94,l.go augusto,11808,13,45.462822152598,9.19846489009608,10619
B94,via visconti di modrone,11812,14,45.4651561139526,9.2002778678809,10619
B94,via s. damiano c.so monforte,11815,15,45.4672800888135,9.20047883851487,10619
B94,c.so venezia via senato,11846,16,45.4693080715895,9.19877887046118,10619
B94,p.za cavour,11839,17,45.4718700103593,9.19574285877749,10619
B94,turati m3,11841,18,45.4755779624824,9.19606289469681,10619
B94,via moscova c.so di p.ta nuova,11562,19,45.4762629899861,9.19249187915953,10619
B94,via moscova via solferino,11599,20,45.4772439313399,9.18736799438727,10619
B94,moscova m2,11593,21,45.4776569410904,9.18516904117674,10619
B94,p.za lega lombarda,11581,22,45.4782519221662,9.18212405777277,10619
B94,p.le baiamonti,11575,23,45.4816638863054,9.18144402499084,10619
B94,bastioni di p.ta volta,15241,24,45.4793058955906,9.18144301213781,10619
B93,v.le omero,12335,1,45.4324775417196,9.22468472873653,5484
B93,v.le omero via barabino,12337,2,45.435002536599,9.22457175406232,5484
B93,p.le gabriele rosa,12338,3,45.4367395118456,9.22456071055235,5484
B93,v.le martini,12350,4,45.4389234843978,9.22425574895125,5484
B93,corvetto m3,12351,5,45.4407044590252,9.22447772648567,5484
B93,p.le bologna,12354,6,45.4435044006444,9.22442570683234,5484
B93,v.le puglie,12372,7,45.4500483655685,9.22416462561672,5484
B93,p.le cuoco,12376,8,45.451965317556,9.2243186889086,5484
B93,v.le molise via cadibona,12377,9,45.4531943194015,9.22411964693928,5484
B93,v.le molise,12381,10,45.4567302763585,9.22409160438485,5484
B93,porta vittoria,15523,11,45.4595262658353,9.22403157522606,5484
B93,v.le campania v.le corsica,12394,12,45.4630252014713,9.2239726322429,5484
B93,via sismondi v.le campania,12398,13,45.4655011824605,9.22527954592419,5484
B93,via lomellina via sismondi,12403,14,45.465547205838,9.22938249120111,5484
B93,l.go porto di classe,12406,15,45.4673411424873,9.2301985205015,5484
B93,via aselli v.le argonne,12449,16,45.4697441843285,9.23019747525688,5484
B93,p.le gorini (istituto dei tumori),12451,17,45.4729261099269,9.23042947410809,5484
B93,via celoria (istituto besta),12453,18,45.4764320301168,9.23007247581381,5484
B93,via bassini via ponzio,12497,19,45.4788850377035,9.23001544667502,5484
B93,via bassini via golgi,12503,20,45.4799849972564,9.23372236582299,5484
B93,via valvassori peroni,12702,21,45.4809660669839,9.23602636240148,5484
B93,stazione lambrate m2,16723,22,45.4849299758273,9.23634831675352,5484
B926,san felicino (peschiera b.),13331,1,45.4568325507782,9.31663947730498,10150
B926,via abruzzi via toscana (peschiera b.),13332,2,45.4596805308839,9.31386450393103,10150
B926,via veneto via toscana (peschiera b.),13333,3,45.4618684760519,9.31367147976708,10150
B926,via trieste via veneto (peschiera b.),13334,4,45.4640704652876,9.31196250354859,10150
B926,trieste,18141,5,45.4633325845687,9.30664496963116,10150
B926,via trieste strada provinciale (peschiera b.),13335,6,45.4632694080725,9.30313357671439,10150
B926,stazione segrate,17926,7,45.4815489096551,9.2983360613973,10150
B925,udine m2,13536,1,45.4916399464808,9.23663827044333,4703
B925,via feltre via pisani dossi,12746,2,45.4912709061449,9.24302119645828,4703
B925,"via feltre, 100",12871,3,45.491535928688,9.24962913609457,4703
B925,v.le turchia (cascina biblioteca),13537,4,45.4961299269077,9.25783900203951,4703
B925,portineria milano 2 (segrate),15197,5,45.4969379162528,9.26304694210084,4703
B925,milano due (segrate),15198,6,45.4943909437884,9.26470395375456,4703
B925,res. archi milano 2 (segrate),15199,7,45.4972089345664,9.26652586827147,4703
B925,res. portici milano 2 (segrate),13539,8,45.499610923425,9.26739485820983,4703
B925,res. ponti milano 2 (segrate),13540,9,45.5014648761837,9.26851680706184,4703
B925,ufficio postale milano 2 (segrate),15196,10,45.5040618493824,9.26879978023597,4703
B925,ospedale san raffaele,13542,11,45.5071328115819,9.26780178717675,4703
B925,via olgettina (amsa),13543,12,45.5096782365408,9.26705714989463,4703
B925,"via olgettina, 5",13544,13,45.5118737701957,9.26725279487197,4703
B925,cascina gobba m2,13525,14,45.5113487930769,9.26060186973944,4703
B924,stazione lambrate m2,17820,1,45.4840786814211,9.23723543615946,9140
B924,stazione lambrate m2,12706,2,45.4841740260103,9.23615032159276,9140
B924,via viotti via bassini,12713,3,45.4828260602499,9.23764132646042,9140
B924,via c. flaminio via saccardo,12716,4,45.4814770591835,9.24115926138055,9140
B924,via c. flaminio via dei canzi,12719,5,45.4801240774008,9.24235325418202,9140
B924,via bistolfi via s. faustino,12724,6,45.4773410677118,9.24308230211547,9140
B924,via pitteri via tanzi,12690,7,45.4772820836834,9.2457532223955,9140
B924,via rubattino via pitteri,12694,8,45.4763410875557,9.24767826300834,9140
B924,"via rubattino, 6",12857,9,45.4767551245572,9.24951320527642,9140
B924,via rubattino (tangenziale est),12865,10,45.4777751447666,9.25424415164782,9140
B924,"via rubattino, 81",12867,11,45.4785021359422,9.25745610168079,9140
B924,via milano via reggio emilia (segrate),13211,12,45.4800131246776,9.2678499606792,9140
B924,v.le delle regioni v.le romagna (segrate),13215,13,45.4826771252835,9.26998188970026,9140
B924,via redecesio via trento (segrate),13216,14,45.4842931284602,9.27576481072546,9140
B924,via modigliani via primo maggio (segrate),13217,15,45.4873341404198,9.29080261618981,9140
B924,via modigliani via roma (segrate),16001,16,45.4873251228585,9.29593154795196,9140
B924,via cellini via cristei (segrate),16852,17,45.4896290751666,9.29610357963041,9140
B924,via morandi (cimitero) (segrate),16853,18,45.4918580597789,9.29907647826718,9140
B924,via morandi via battisti (segrate),16854,19,45.4968470163255,9.29985547380356,9140
B924,via giovanni xxiii via s.carlo (segrate),13223,20,45.499216991859,9.29321854291987,9140
B923,ufficio postale milano 2 (segrate),15191,1,45.5043378340225,9.26837079523123,10132
B923,res. ponti milano 2 (segrate),13530,2,45.5014168812656,9.2683178285665,10132
B923,res. portici milano 2 (segrate),13531,3,45.4997549054262,9.26726386914249,10132
B923,res. archi milano 2 (segrate),13532,4,45.4971909600017,9.26601290176913,10132
B923,milano due (segrate),15192,5,45.49437198706,9.26355995136641,10132
B923,via f.lli cervi via cassanese (segrate),15193,6,45.4913389746924,9.26153096878308,10132
B923,via cassanese via radaelli (segrate),15194,7,45.4909910310001,9.26699494412633,10132
B923,via cassanese via marconi (segrate),15989,8,45.4936579990286,9.2786217117234,10132
B923,via cassanese via monzese (segrate),14983,9,45.4959384358134,9.28834159903686,10132
B923,via monzese via nenni (segrate),15990,10,45.4975690091218,9.2887116066165,10132
B923,via amendola via nenni (segrate),15991,11,45.4973789602506,9.28547760744781,10132
B923,via amendola via olgetta (segrate),15992,12,45.5001979278254,9.2846886182108,10132
B923,v.le manzoni via monzese (segrate),15993,13,45.5012979263025,9.28774559932915,10132
B923,via giovanni xxiii via s.carlo (segrate),15994,14,45.4996379812529,9.29258755109902,10132
B923,via cassanese via giovanni xxiii (segrate),15995,15,45.4972319994207,9.29372255922757,10132
B923,via gramsci via battisti (segrate),16972,16,45.4961020223858,9.29395352323433,10132
B923,via grandi via roma (segrate),15997,17,45.4934550502673,9.29318756638071,10132
B923,via lambro (segrate),15998,18,45.4934590613801,9.28906659874409,10132
B923,via san rocco (segrate),15999,19,45.4910220587269,9.28846064250113,10132
B923,via primo maggio (segrate),16000,20,45.4898500947451,9.29171158963987,10132
B923,via modigliani via roma (segrate),16001,21,45.4873251228585,9.29593154795196,10132
B923,via cellini via modigliani (segrate),16002,22,45.4884981070038,9.29633256106984,10132
B923,via morandi (cimitero) (segrate),16003,23,45.4921631118392,9.29953452001163,10132
B923,via morandi via cristei (segrate),13230,24,45.4893311013269,9.29845855288769,10132
B923,via morandi via modigliani (segrate),16004,25,45.4869311290344,9.29866553872381,10132
B923,via morandi via cellini (segrate),16005,26,45.4842611502213,9.2991905369741,10132
B923,stazione fs,17977,27,45.4817766226842,9.29824065706697,10132
B923,strada rivoltana via s.bovio (segrate),16006,28,45.4777322912495,9.30353651566113,10132
B923,"p.za centro commerciale, 6 (segrate)",13324,29,45.4743572926274,9.30654651519058,10132
B923,"p.za centro commerciale, 2 (segrate)",13325,30,45.4726153106721,9.30585752760482,10132
B923,portineria san felice (segrate),13326,31,45.4745632780669,9.3044795171347,10132
B922,res. archi milano 2 (segrate),15199,1,45.4972089345664,9.26652586827147,9608
B922,res. archi milano 2 (segrate),13532,2,45.4971909600017,9.26601290176913,9608
B922,milano due (segrate),15192,3,45.49437198706,9.26355995136641,9608
B922,via f.lli cervi via cassanese (segrate),15193,4,45.4913389746924,9.26153096878308,9608
B922,via cassanese via radaelli (segrate),15194,5,45.4909910310001,9.26699494412633,9608
B922,via cassanese via marconi (segrate),15989,6,45.4936579990286,9.2786217117234,9608
B922,via san rocco (segrate),15999,7,45.4910220587269,9.28846064250113,9608
B922,via san rocco (segrate),16010,8,45.4928190533756,9.28837667183072,9608
B922,via cassanese via monzese (segrate),14983,9,45.4959384358134,9.28834159903686,9608
B922,via monzese via nenni (segrate),15990,10,45.4975690091218,9.2887116066165,9608
B922,via amendola via nenni (segrate),15991,11,45.4973789602506,9.28547760744781,9608
B922,via amendola via olgetta (segrate),15992,12,45.5001979278254,9.2846886182108,9608
B922,v.le manzoni via monzese (segrate),15993,13,45.5012979263025,9.28774559932915,9608
B922,via giovanni xxiii via s.carlo (segrate),15994,14,45.4996379812529,9.29258755109902,9608
B922,via cassanese via giovanni xxiii (segrate),15995,15,45.4972319994207,9.29372255922757,9608
B922,via cassanese via giovanni xxiii (segrate),14984,16,45.4968670213761,9.29463454767746,9608
B922,di vittorio - cassanese,17986,17,45.4982696837144,9.30101233770565,9608
B922,vespucci - colombo,17985,18,45.4997073598888,9.30418059672247,9608
B922,via morelli (segrate),16855,19,45.5038269418679,9.29821448535534,9608
B92,lodi m3,13805,1,45.4467743575117,9.20827789983904,8644
B92,p.le lodi v.le umbria m3,13165,2,45.4481743128089,9.21081285717965,8644
B92,v.le umbria via muratori,13166,3,45.4503673123119,9.21256375846121,8644
B92,v.le umbria via comelico,12070,4,45.4532932857646,9.21515776886125,8644
B92,via maestri campionesi,12077,5,45.4552662744712,9.21652574359645,8644
B92,via arconati,12115,6,45.457595248308,9.21745369307993,8644
B92,p.za emilia,14871,7,45.4619472045348,9.21743864832333,8644
B92,v.le piceno,17270,8,45.4658001596408,9.21738766875476,8644
B92,dateo,17271,9,45.4683881188137,9.21730366384331,8644
B92,v.le dei mille p.za novelli,17272,10,45.4703050959469,9.2172566377081,8644
B92,p.za ascoli,17273,11,45.4740050563478,9.21720463153174,8644
B92,v.le abruzzi via plinio,17274,12,45.4774210352925,9.21720059027075,8644
B92,p.le bacone,17277,13,45.4805399767463,9.21715357466554,8644
B92,via piccinni v.le abruzzi,12208,14,45.4820669353288,9.2164776011088,8644
B92,p.le loreto via pergolesi,12198,15,45.483588939879,9.21337859260159,8644
B92,caiazzo m2,12184,16,45.4856129233009,9.209306642203,8644
B92,p.za luigi di savoia,12176,17,45.4866518811109,9.20727068285772,8644
B92,stazione centrale via tonale,11931,18,45.4883268402115,9.20389968233129,8644
B92,sondrio m3,11918,19,45.4899578216149,9.20068577500529,8644
B92,v.le sauro via oldofredi,11906,20,45.4913218280024,9.19776180578184,8644
B92,zara m3/m5,11895,21,45.4925087793156,9.19335582007747,8644
B92,v.le stelvio via lario,11641,22,45.4931107616984,9.19107284421808,8644
B92,via farini v.le stelvio,11622,23,45.4945377297763,9.18559389926269,8644
B92,via bernina,11610,24,45.4956217320491,9.18156992117275,8644
B92,lancetti,11327,25,45.4954586772603,9.17690600575007,8644
B92,p.le nigra,11361,26,45.4958227143687,9.17193908116927,8644
B92,via imbriani via scalvini,17703,27,45.4991165864453,9.16941023788335,8644
B92,bausan,11329,28,45.5015786246027,9.16629706562377,8644
B92,via broglio via vare',11025,29,45.5025065830654,9.16270817359835,8644
B92,bovisa (politecnico),11024,30,45.5031885496609,9.16125212640374,8644
B92,via bovisasca via morghen,11020,31,45.505296521464,9.16013510872295,8644
B92,via cosenz via grazzini,14075,32,45.5065115408341,9.16012915170531,8644
B92,via durando via cosenz,11033,33,45.5062235522983,9.16325610173885,8644
B92,via bovisasca via morghen,11019,34,45.5046565612098,9.1602721042914,8644
B92,bovisa (politecnico),11018,35,45.5031165882781,9.16116410116913,8644
B92,via vare',11023,36,45.5017785996222,9.16208813467193,8644
B91,lodi m3,13164,1,45.4467333276945,9.20913688627292,3578
B91,p.le lodi v.le umbria m3,13165,2,45.4481743128089,9.21081285717965,3578
B91,v.le umbria via muratori,13166,3,45.4503673123119,9.21256375846121,3578
B91,via tertulliano via lattanzio,12064,4,45.4503693185114,9.21394975746177,3578
B91,via tertulliano via decembrio,12073,5,45.4495953277721,9.21671677725282,3578
B91,p.za salgari,12081,6,45.449921307512,9.21993774194263,3578
B91,p.le cuoco,12376,7,45.451965317556,9.2243186889086,3578
B91,v.le molise via cadibona,12377,8,45.4531943194015,9.22411964693928,3578
B91,v.le molise,12381,9,45.4567302763585,9.22409160438485,3578
B91,porta vittoria,15523,10,45.4595262658353,9.22403157522606,3578
B91,v.le campania v.le corsica,12394,11,45.4630252014713,9.2239726322429,3578
B91,v.le campania via archimede,12396,12,45.4660061701432,9.22393658216271,3578
B91,v.le romagna p.le susa,12421,13,45.4695931284186,9.22389459082041,3578
B91,p.za ferravilla,12425,14,45.4717520977916,9.22387353503034,3578
B91,l.go rio de janeiro,12427,15,45.4739290749437,9.22384753795279,3578
B91,v.le romagna via pascoli,12428,16,45.4757860616267,9.22380555678316,3578
B91,v.le romagna p.le piola m2,12479,17,45.4792850440845,9.22376352109297,3578
B91,v.le gran sasso p.le piola m2,12475,18,45.4809019699779,9.22279851869456,3578
B91,v.le gran sasso via garofalo,12227,19,45.4828859730067,9.21886754354355,3578
B91,loreto m1 m2,12211,20,45.4842319633969,9.21598556708268,3578
B91,v.le andrea doria,12189,21,45.4856709200823,9.21209460468722,3578
B91,caiazzo m2,12184,22,45.4856129233009,9.209306642203,3578
B91,p.za luigi di savoia,12176,23,45.4866518811109,9.20727068285772,3578
B91,stazione centrale via tonale,11931,24,45.4883268402115,9.20389968233129,3578
B91,sondrio m3,11918,25,45.4899578216149,9.20068577500529,3578
B91,v.le sauro via oldofredi,11906,26,45.4913218280024,9.19776180578184,3578
B91,zara m3/m5,11895,27,45.4925087793156,9.19335582007747,3578
B91,v.le stelvio via lario,11641,28,45.4931107616984,9.19107284421808,3578
B91,via farini v.le stelvio,11622,29,45.4945377297763,9.18559389926269,3578
B91,via bernina,11610,30,45.4956217320491,9.18156992117275,3578
B91,v.le jenner,11346,31,45.4969506597064,9.17681098455625,3578
B91,p.le nigra,11342,32,45.4965896791031,9.17152705689954,3578
B91,p.le lugano,11332,33,45.4981216190357,9.16695410504922,3578
B91,via mac mahon v.le m.te ceneri,10991,34,45.4937396992926,9.15677625416427,3578
B91,via bartolini v.le m.te ceneri,10973,35,45.4917187139009,9.15364332770963,3578
B91,v.le certosa v.le serra,10967,36,45.4905726717475,9.15193032041474,3578
B91,v.le serra via traiano,10693,37,45.4889517117193,9.14945437863821,3578
B91,v.le serra v.le scarampo,10657,38,45.4849357565093,9.1436524673265,3578
B91,p.za stuparich,10655,39,45.4825557305042,9.14288646274215,3578
B91,lotto (fieramilanocity) m1 m5,10644,40,45.4796847926396,9.1426514810323,3578
B902,san donato m3,16290,1,45.42920164562,9.25676638874029,6293
B902,s.p.paullese via moro (s.donato m.se),16163,2,45.4280227481284,9.27052921544892,6293
B902,s.p.paullese via gela (s.donato m.se),16164,3,45.4222268539382,9.28337208774757,6293
B902,via della liberazione via roma (peschiera b.),16348,4,45.4244818099025,9.29520696384058,6293
B902,via della liberazione via de amicis (peschiera b.),16349,5,45.4252588394742,9.2997699039924,6293
B902,via della liberazione via melegnano (peschiera b.),16350,6,45.4265108577021,9.30749677395679,6293
B902,via f.lli cervi via padre pio (peschiera b.),16166,7,45.4230548780461,9.30878978352277,6293
B902,via grandi via legnano (mediglia),16345,8,45.4215699255342,9.30889974659505,6293
B902,via grandi via da vinci (mediglia),16167,9,45.4182889775924,9.31048777958812,6293
B902,via grandi via da vinci (mediglia),16168,10,45.4184709651881,9.31051480856695,6293
B902,via grandi via magenta (peschiera b.),16169,11,45.4211909528003,9.30916676947646,6293
B902,via f.lli cervi via padre pio (peschiera b.),16170,12,45.4235818508332,9.30890480401889,6293
B902,via matteotti via a.moro (peschiera b.),15758,13,45.4290498171755,9.3087957648332,6293
B902,via matteotti via giovanni xxiii (peschiera b.),15759,14,45.4296928646799,9.31249473873928,6293
B902,via monti via leopardi (peschiera b.),16181,15,45.4332448128746,9.31618962378319,6293
B902,via quasimodo via ungaretti (peschiera b.),16182,16,45.4372417342228,9.31516062390893,6293
B902,via quasimodo via dante (peschiera b.),17001,17,45.4367377462288,9.31127264458096,6293
B902,via dante via xxv aprile (peschiera b.),17002,18,45.4330998107047,9.31162364866239,6293
B902,via xxv aprile via moro (peschiera b.),16205,19,45.4330277556222,9.30780769832936,6293
B902,via xxv aprile via della resistenza (peschiera b.),16206,20,45.4363657253441,9.29623984964771,6293
B902,via della resistenza via s.maria (peschiera b.),16207,21,45.4384906727204,9.29529083425387,6293
B902,via della resistenza via ponchielli (peschiera b.),16208,22,45.4401756663709,9.29497186664129,6293
B902,via della resistenza via nenni (peschiera b.),16209,23,45.4432826076271,9.29445086704963,6293
B902,via turati via curiel (peschiera b.),16210,24,45.4447406061202,9.29245684788338,6293
B902,strada rivoltana via buozzi (segrate),13322,25,45.4768552242253,9.29812356474719,6293
B902,via s.bovio portineria s.felice (segrate),16346,26,45.475364273144,9.30407453347761,6293
B901,san donato m3,16162,1,45.429048683735,9.25655238881579,8736
B901,s.p.paullese via moro (s.donato m.se),16163,2,45.4280227481284,9.27052921544892,8736
B901,s.p.paullese via gela (s.donato m.se),16164,3,45.4222268539382,9.28337208774757,8736
B901,via di vittorio via liberazione (peschiera b.),16165,4,45.4249957953994,9.28970900298262,8736
B901,via di vittorio v.le primo maggio (peschiera b.),16171,5,45.4292107908148,9.28843899161376,8736
B901,via di vittorio via xxv aprile (peschiera b.),16172,6,45.4363626917999,9.2891089566652,8736
B901,via f.lli bandiera via 4 novembre (peschiera b.),16173,7,45.4396206467188,9.28504298528885,8736
B901,via sauro via f.lli rosselli (peschiera b.),16174,8,45.4380316614958,9.28697994636722,8736
B901,via turati via curiel (peschiera b.),16175,9,45.4446416307258,9.29255487453169,8736
B901,via della resistenza via nenni (peschiera b.),16176,10,45.4431886185209,9.29430682026226,8736
B901,via della resistenza via ponchielli (peschiera b.),16177,11,45.4406486249529,9.29473187680056,8736
B901,via della resistenza via s.maria (peschiera b.),16178,12,45.4384106798225,9.2951638458176,8736
B901,via xxv aprile via moro (peschiera b.),16179,13,45.4331847366093,9.30682574739161,8736
B901,via xxv aprile via dante (peschiera b.),16180,14,45.4320228002534,9.311091679256,8736
B901,via monti via leopardi (peschiera b.),16181,15,45.4332448128746,9.31618962378319,8736
B901,via quasimodo via ungaretti (peschiera b.),16182,16,45.4372417342228,9.31516062390893,8736
B901,via quasimodo via dante (peschiera b.),17001,17,45.4367377462288,9.31127264458096,8736
B901,via dante via xxv aprile (peschiera b.),17002,18,45.4330998107047,9.31162364866239,8736
B901,via matteotti via a.moro (peschiera b.),15761,19,45.4292688646067,9.30929573110499,8736
B901,via matteotti via don sturzo (peschiera b.),15762,20,45.4290807996622,9.30567174665384,8736
B90,v.le molise via cadibona,12378,1,45.4539253098599,9.22386368313776,1345
B90,p.le cuoco,12375,2,45.4517823313615,9.22368870052124,1345
B90,p.za salgari,12363,3,45.4503603272699,9.22137173150984,1345
B90,via caroncini via tertulliano,12079,4,45.4494983284896,9.21791677904854,1345
B90,via tertulliano via lattanzio,12068,5,45.4500523231195,9.21547775129243,1345
B90,v.le umbria via muratori,13156,6,45.4501843095022,9.21227180713473,1345
B90,p.le lodi v.le umbria m3,13157,7,45.4478963407361,9.21048281900238,1345
B90,lodi m3,13158,8,45.447018354953,9.20848884970724,1345
B89,via ciccotti (affori fn m3),16793,1,45.5225993925015,9.16694498727717,6802
B89,via l. modignani via comasina,11371,2,45.5237953249648,9.16526797077319,6802
B89,l.go abbagnano (comasina m3),15905,3,45.5269012864085,9.16426494690444,6802
B89,comasina m3,17102,4,45.5288383081985,9.1633249670817,6802
B89,via comasina via novate,16841,5,45.5310712771712,9.1622819626563,6802
B89,via polveriera via bellini (novate),17170,6,45.5306792533672,9.15361507429869,6802
B89,via polveriera via bovisasca (novate),17103,7,45.528776274639,9.14923812398555,6802
B89,via rimembranze via latini (novate),10009,8,45.5300342596597,9.14378221801136,6802
B89,via matteotti via cavour (novate),10001,9,45.5315141653802,9.14099327526464,6802
B89,via cavour via morandi (novate),10002,10,45.5323071947304,9.14445517304723,6802
B89,via brodolini via cavour (novate),15151,11,45.5332762224044,9.14645815719636,6802
B89,"via balossa, 22 (novate)",15152,12,45.534717211736,9.14532016775608,6802
B89,"via roma, 4 (novate)",15153,13,45.533176160229,9.13967920209738,6802
B89,via bollate via volta (novate),15154,14,45.5341441602261,9.13568927871145,6802
B89,novate milanese,15487,15,45.5372791342149,9.13010633088367,6802
B88,rogoredo m3,16078,1,45.4331185802075,9.24009957772113,5084
B88,via m.te penice via pizzolpasso,16077,2,45.4339355643674,9.2425915208222,5084
B88,via pizzolpasso via del futurismo,16076,3,45.4351165971378,9.2416445217117,5084
B88,via pizzolpasso via manzu',16075,4,45.4364199510256,9.23929126677646,5084
B88,via manz via cascella,16074,5,45.4377455184476,9.24060810966631,5084
B88,via sordello via bonfadini,16073,6,45.444099478632,9.24565343179987,5084
B88,v.le ungheria,16084,7,45.4454924645648,9.24881935902843,5084
B87,stazione centrale m2 m3,11884,1,45.4872628736395,9.20278975218011,8807
B87,stazione centrale via tonale,11930,2,45.4882018674076,9.20347871385857,8807
B87,v.le lunigiana,17358,3,45.4912698298836,9.2066626386781,8807
B87,via sammartini via parravicini,12235,4,45.492273832074,9.20897758082272,8807
B87,via f. aporti via lumiere,17735,5,45.4920966962601,9.21224326544183,8807
B87,via f. aporti via d'apulia,17736,6,45.4942938252764,9.21436350552668,8807
B87,v.le rim. di greco l.go s.valentino,17737,7,45.4975497811765,9.21284156502603,8807
B87,v.le rimembranze di greco,12275,8,45.4996627347888,9.2119565353974,8807
B87,p.za greco,12270,9,45.5022567470112,9.21141152729075,8807
B87,cimitero di greco,12278,10,45.5045047122146,9.21221349612302,8807
B87,via e. de marchi via breda,12289,11,45.5074476729145,9.2103525135559,8807
B87,v.le dell'innovazione via figini,15849,12,45.5101886467141,9.21058450215883,8807
B87,teatro arcimboldi,15850,13,45.5135925869102,9.21250445395805,8807
B87,arcimboldi ateneo nuovo,15851,14,45.5160225726649,9.21392240884612,8807
B87,universit bicocca,17151,15,45.518185555031,9.21265543348022,8807
B86,cislaghi,19594,1,45.5123338415892,9.22521126636148,11130
B86,via don guanella via apelle,12566,2,45.5109266977014,9.22632128010283,11130
B86,via don guanella via don porro,12569,3,45.5106326515329,9.22945629404598,11130
B86,via mariani via corazzini,12571,4,45.5106816667883,9.2321482480062,11130
B86,via p.te nuovo via mariani,12787,5,45.5115846922435,9.23495713435466,11130
B86,via tremelloni via p.te nuovo,16786,6,45.5138996378289,9.23393319072182,11130
B86,via gassman via tremelloni,17162,7,45.5141496357749,9.23621314078656,11130
B86,via gassman via tognazzi,17164,8,45.5135226695532,9.24000712399564,11130
B86,via tognazzi via mastroianni,17166,9,45.5145216363351,9.24170108404039,11130
B86,via tremelloni via tognazzi,17319,10,45.5166836623021,9.24139802565196,11130
B86,q.re adriano,13981,11,45.5163626485948,9.24403008520663,11130
B86,via adriano via brambilla,13982,12,45.5139217201739,9.2453020550848,11130
B86,via adriano via del ricordo,12801,13,45.5116777351928,9.24655007107126,11130
B86,p.za costantino,12879,14,45.5097297580366,9.24815704695261,11130
B86,via padova via palmanova,13983,15,45.511151743346,9.25428793128756,11130
B86,"via padova, 353",12892,16,45.5115697574638,9.25576492638876,11130
B86,via padova via rizzoli,12898,17,45.5121647485705,9.2592248795859,11130
B86,cascina gobba m2,16767,18,45.5113927542714,9.26012785804997,11130
B84,san donato m3,15269,1,45.4285937148433,9.255727361952,10123
B84,via impastato via busseto,15230,2,45.4277846788399,9.25221141612795,10123
B84,via impastato via rogoredo,15224,3,45.4282266993224,9.24966448381866,10123
B84,via feltrinelli via m.te cengio,17066,4,45.430327621216,9.24789449888695,10123
B84,"via feltrinelli, 16/50",17067,5,45.4335676376442,9.25008344428668,10123
B84,"via medea, 16/39",17068,6,45.4345326074524,9.24924039810204,10123
B84,"via medea, 16/29",17069,7,45.4325296015906,9.2474074850175,10123
B84,via m.te popera via m.te cengio,17070,8,45.4312136192429,9.24606350095459,10123
B84,via m.te cengio via freikofel,17071,9,45.4317306412242,9.24459550435921,10123
B84,via m.te paralba via rogoredo,17072,10,45.4317965902053,9.24291454851387,10123
B84,rogoredo m3,17073,11,45.4323466246627,9.24036655616069,10123
B84,via rogoredo via m.te popera,17074,12,45.4301076034487,9.24550647469623,10123
B84,p.za mistral,12596,13,45.4344536000827,9.23612959837218,10123
B84,via cassinis via pallia,12960,14,45.4357625788426,9.23363262218455,10123
B84,porto di mare m3,12961,15,45.437209518234,9.2303286557949,10123
B84,via marochetti via avezzana,12962,16,45.43888252393,9.22679568668457,10123
B84,corvetto m3,12351,17,45.4407044590252,9.22447772648567,10123
B84,p.le bologna,12354,18,45.4435044006444,9.22442570683234,10123
B84,v.le puglie,12372,19,45.4500483655685,9.22416462561672,10123
B84,p.le cuoco,12369,20,45.4517703322208,9.22280470974444,10123
B84,p.za insubria,12365,21,45.4531413036387,9.22162968735705,10123
B84,p.za imperatore tito,12080,22,45.4540733072011,9.21905173720282,10123
B84,via maestri campionesi,12076,23,45.4554222623492,9.21715269119021,10123
B84,via cadore via spartaco,12101,24,45.4575402393802,9.21335478093796,10123
B84,via spartaco via morosini,12097,25,45.4583632269112,9.21125376072809,10123
B84,v.le monte nero via spartaco,12087,26,45.4596122048538,9.20772384122107,10123
B84,via besana via podgora,11819,27,45.4616041496537,9.20339187508507,10123
B84,palazzo di giustizia,17854,28,45.4627680559387,9.20063775504673,10123
B84,cavallotti,18155,29,45.4639899954684,9.19635980204224,10123
B84,via verziere,18009,30,45.462865145621,9.19627112466773,10123
B83,osp. maggiore (via zubiani),16094,1,45.5073825964123,9.18526682967275,6736
B83,ospedale maggiore (niguarda),11666,2,45.5093825756535,9.18988176059096,6736
B83,girola,11670,3,45.5112895449277,9.19075076128098,6736
B83,via giovanni danzi,15413,4,45.5134805305626,9.19338368596613,6736
B83,p.za belloveso,15071,5,45.515942512844,9.19348068318341,6736
B83,niguarda nord,11691,6,45.5187984943174,9.19215868963369,6736
B83,cascina california,15464,7,45.5219244257623,9.19235066009512,6736
B83,niguarda (parco nord),11692,8,45.52443841085,9.19250762344693,6736
B83,via ornato via aldo moro,15415,9,45.5255974306771,9.1925676408074,6736
B83,via vitt. veneto via giovanni xxiii (bresso),13098,10,45.528383395462,9.19279266084275,6736
B83,via vitt. veneto via dante (bresso),13099,11,45.5312043346152,9.19308963484567,6736
B83,via vitt. veneto via patellani (bresso),13100,12,45.5359752811183,9.19267756103421,6736
B83,via lurani via vitt. veneto (bresso),15428,13,45.5390042557433,9.1900325941028,6736
B83,via roma p.za immacolata (bresso),13345,14,45.5389502400341,9.18745263944688,6736
B83,via roma via pellico (bresso),13346,15,45.5413322161911,9.18658364489931,6736
B83,via cadorna via brodolini (cormano),13775,16,45.5422231790649,9.18059266315016,6736
B83,via cadorna via clerici (cormano),16801,17,45.5410291625002,9.17616372691477,6736
B83,via vitt.veneto via verga (cormano),13350,18,45.5397012102793,9.1760217516479,6736
B83,via comasinella via bizzozzero (cormano),13351,19,45.5374272025697,9.17695777999754,6736
B83,s.p. 199 via comasinella (cormano),16802,20,45.536294248865,9.17609779942745,6736
B83,"via comasina, 121",11055,21,45.5339182305952,9.16119796008071,6736
B83,comasina m3,13312,22,45.5282802917842,9.16345799572781,6736
B83,comasina m3,16803,23,45.5293462483602,9.1631249451105,6736
B82,via cerkovo (q.re bovisasca),11037,1,45.5164084012559,9.15309916537853,9212
B82,via bovisasca via el alamein,11040,2,45.5169004056011,9.15539810517854,9212
B82,via bovisasca via gabbro,11027,3,45.5151964145971,9.15675112925345,9212
B82,via nicolodi via pedroni,11360,4,45.5114215055993,9.16651601542154,9212
B82,via pedroni via montanari,11359,5,45.5096245032856,9.16725707405127,9212
B82,via cosenz via don minzoni,11358,6,45.5077035738424,9.16645809994997,9212
B82,via cosenz via durando,11034,7,45.5071725078387,9.16334207386539,9212
B82,via cosenz via grazzini,11029,8,45.5066105717396,9.16023108587421,9212
B82,via bovisasca via morghen,11019,9,45.5046565612098,9.1602721042914,9212
B82,bovisa (politecnico),11017,10,45.5026925364638,9.15904013019247,9212
B82,via vare',11023,11,45.5017785996222,9.16208813467193,9212
B82,bausan,11026,12,45.5019106235199,9.16442113490113,9212
B82,via maffucci via baldinucci,11336,13,45.5033925773451,9.16928502544134,9212
B82,via baldinucci via davanzati,11343,14,45.5044186116575,9.17277100675902,9212
B82,via baldinucci via tartini,11344,15,45.505112585588,9.17514994988921,9212
B82,via tartini via carnevali,11349,16,45.5042285795916,9.17634695463825,9212
B82,p.za dergano,11347,17,45.5030626155863,9.17657997128709,9212
B82,via livigno via abba,11355,18,45.5020156018719,9.17798792265905,9212
B82,via livigno via m.te s. genesio,11354,19,45.500552656373,9.17818993273892,9212
B82,via livigno v.le jenner,11351,20,45.49744268609,9.17858996368021,9212
B82,maciachini m3,15436,21,45.4971517063877,9.1834439254012,9212
B82,via lario via murat,17359,22,45.495593722608,9.19178881325823,9212
B82,zara m3/m5,17343,23,45.4932117767117,9.19271182178236,9212
B81,stazione centrale p.za duca d'aosta m2 m3,15635,1,45.4845898911612,9.20282175182639,5075
B81,via galvani via copernico,11881,2,45.4862148601397,9.19963280190245,5075
B81,sondrio m3,11911,3,45.4890038294261,9.20043271643095,5075
B81,v.le lunigiana via gioia,11932,4,45.4915418110381,9.20343869355336,5075
B81,via gioia via cagliero,11940,5,45.4939697812583,9.20634660234897,5075
B81,via gioia via tirano,12265,6,45.4969247890317,9.20813564759818,5075
B81,via e. de marchi via s. r. delle ande,15847,7,45.4991607678096,9.20861555628953,5075
B81,p.za greco,15848,8,45.502010703988,9.21043457692002,5075
B81,cimitero di greco,12278,9,45.5045047122146,9.21221349612302,5075
B81,via e. de marchi via breda,12286,10,45.5065186848477,9.21124452039455,5075
B81,via breda via angeleri,12292,11,45.5097676507563,9.21390946488155,5075
B81,via breda via rucellai,12295,12,45.5116776077084,9.21546142949004,5075
B81,via breda via gilardi,12297,13,45.5135016143436,9.21714740502877,5075
B81,via breda via capelli,12314,14,45.516174580717,9.21928938628541,5075
B81,via breda via vipacco,15461,15,45.5179345880735,9.221557331938,5075
B81,villa san giovanni m1,15462,16,45.5173785664143,9.22521824515254,5075
B81,v.le monza via empedocle,12584,17,45.5192966130394,9.22685524895293,5075
B81,sesto marelli m1,12587,18,45.5230035257558,9.22795522393102,5075
B81,sesto marelli m1,15079,19,45.5239245282024,9.22876418317316,5075
B80,p.za amati,10393,1,45.4694398538381,9.125052756787,8150
B80,p.za melozzo da forli',10404,2,45.4681858578253,9.1297137185577,8150
B80,via rembrandt via capecelatro,10416,3,45.467702897733,9.13366869406364,8150
B80,via rembrandt v.le aretusa,10424,4,45.467388934348,9.13661867364747,8150
B80,p.le velasquez,10614,5,45.4673569445386,9.14110556575381,8150
B80,p.za ghirlandaio,10623,6,45.4669489327755,9.14547255197895,8150
B80,de angeli m1,10592,7,45.4667249627617,9.14797951899043,8150
B80,de angeli m1,10585,8,45.4665639385942,9.14917651063139,8150
B79,gratosoglio,11090,1,45.4037457303297,9.17316253545344,9923
B79,via baroni via saponaro,11084,2,45.4045507041184,9.17082257457001,9923
B79,"via baroni, 59",11086,3,45.4068876714281,9.17000458029556,9923
B79,"via baroni, 47",11071,4,45.4085956827508,9.17095255418498,9923
B79,"via baroni, 13/a",11074,5,45.4113626510363,9.17190953480518,9923
B79,"via baroni, 36",11076,6,45.4125136039757,9.17226948198159,9923
B79,via gratosoglio via baroni,11075,7,45.4141455983186,9.1708795280209,9923
B79,via gratosoglio via feraboli,12971,8,45.4150295610139,9.16959149053551,9923
B79,via feraboli via gratosoglio,11070,9,45.4164196104612,9.16960649847041,9923
B79,via gratosoglio via chiesa rossa,10749,10,45.4174215233067,9.16505660345248,9923
B79,casina basmetto,18092,11,45.4131958884892,9.16457950607264,9923
B79,via chiesa rossa via pienza,11099,12,45.4203314900286,9.16638855738062,9923
B79,via chiesa rossa via boifava,11102,13,45.4264874758558,9.16995344924713,9923
B79,via boifava via s. giacomo,11103,14,45.4268364518131,9.17156944202845,9923
B79,"via s. giacomo, 1/a",11122,15,45.4285574386432,9.17317941710076,9923
B79,via savio via s. giacomo,11129,16,45.4300404378689,9.1743873823359,9923
B79,p.za abbiategrasso m2,11132,17,45.4299464820732,9.17696737777255,9923
B79,p.za abbiategrasso m2,11134,18,45.4306574395196,9.17702931465283,9923
B783,bresso (don minzoni),14087,1,45.5425602333992,9.18964353997266,9778
B783,via vitt. veneto via gobetti (bresso),13348,2,45.540616245569,9.18936656751455,9778
B783,via vitt. veneto via villa (bresso),14088,3,45.538385276997,9.19173356836183,9778
B783,via villa via brioschi (bresso),14089,4,45.5391212768496,9.19501647992412,9778
B783,via villa via matteotti (bresso),14090,5,45.5396392714629,9.19738344925482,9778
B783,via xxv aprile ,18028,6,45.5354568756326,9.19581017025709,9778
B783,via villoresi via s. chiara (bresso),14093,7,45.5343953131913,9.19411155619689,9778
B783,p.za italia (bresso),14094,8,45.5324493377929,9.19640353740219,9778
B783,v.le testi via s. glicerio,17153,9,45.5186235214223,9.20698151214479,9778
B783,bicocca m5,17152,10,45.5161905641282,9.20571750046143,9778
B78,via govone,11007,1,45.4925647314605,9.16290016726909,10491
B78,via govone via p. eugenio,11318,2,45.4907117316802,9.16545214454742,10491
B78,via mac mahon via p. eugenio,11011,3,45.4896697373466,9.16419817062086,10491
B78,p.za caneva,11000,4,45.4882407675218,9.16207824361658,10491
B78,c.so sempione via e. filiberto,10994,5,45.486408739662,9.15920027110569,10491
B78,p.le damiano chiesa,10940,6,45.4837368116336,9.1551303582082,10491
B78,via gattamelata (fieramilanocity),10938,7,45.4829277435586,9.15387635999866,10491
B78,portello m5,10936,8,45.4814637886048,9.15166136456452,10491
B78,via silva via albani,10669,9,45.4796178341181,9.1488394311159,10491
B78,via silva via m.te rosa,17532,10,45.4777857916412,9.14599149976265,10491
B78,lotto (fieramilanocity) m1 m5,17533,11,45.4789458102243,9.14422548839709,10491
B78,p.le lotto via diomede,10647,12,45.480526788701,9.14253748598146,10491
B78,via diomede via cassino,10637,13,45.4827507495786,9.13800656386463,10491
B78,via diomede via arenzano,10436,14,45.4836777068557,9.13424756807936,10491
B78,via diomede via sant'elia,10434,15,45.4844917042856,9.13094666622836,10491
B78,via diomede via trenno,10430,16,45.485119683317,9.12844561602836,10491
B78,via ippodromo via diomede,10276,17,45.4859866661988,9.12414168486918,10491
B78,via ippodromo via patroclo,10274,18,45.4851206563944,9.11926478513117,10491
B78,via patroclo via bisanzio,10273,19,45.4834136555922,9.11807782753113,10491
B78,via tesio via patroclo,10272,20,45.4808817293245,9.11879383118578,10491
B78,via tesio via harar,10269,21,45.4772967427822,9.11727285106865,10491
B78,san siro stadio m5,17531,22,45.4760767820507,9.11822987448886,10491
B78,via s. giusto via dessie',16999,23,45.4754117940552,9.12074881125241,10491
B78,via novara via s. giusto,10259,24,45.4723447943879,9.11818580270933,10491
B78,ospedale san carlo,10255,25,45.4708072385097,9.11477481076167,10491
B78,via pio ii (ospedale san carlo),10247,26,45.4702238131604,9.11254189959866,10491
B78,marx,18507,27,45.4721509698884,9.11150368010447,10491
B78,via marx via cannizzaro,10089,28,45.4743127533015,9.10930195202006,10491
B78,via l. zoja via f.lli zoia,10082,29,45.4741487554394,9.10742797263828,10491
B78,"via milly, 9",10080,30,45.4733607658048,9.1062659539377,10491
B78,via milly via marchesi,10077,31,45.4717577955547,9.10658903481309,10491
B78,via marchesi via f.lli zoia,10087,32,45.4714767759731,9.10866093789207,10491
B78,via pio ii via f.lli zoia,10086,33,45.470223802226,9.10939392060282,10491
B78,via venegoni via pio ii,10240,34,45.4684408357866,9.11143896172395,10491
B78,via venegoni via olivieri,14184,35,45.465426864117,9.11300294137717,10491
B78,"via olivieri, 12",10224,36,45.4633569173117,9.11411394146885,10491
B78,via olivieri via f.ze armate,10228,37,45.4613599283621,9.1151069818209,10491
B78,bisceglie m1 (via lucca),10209,38,45.4557529906773,9.11237303473569,10491
B78,"via mengoni, 11",17739,39,45.4506410108786,9.10182413978647,10491
B78,"via mengoni, 9",17740,40,45.4517889957239,9.10357215084092,10491
B78,mengoni,17975,41,45.4538975723535,9.10781232289149,10491
B78,bisceglie m1,10211,42,45.4552419968318,9.11214601394273,10491
B77,via unica poasco via don milani (s.donato),15639,1,45.4013179470775,9.23042084496243,9439
B77,via unica poasco via pertini (s.donato),15640,2,45.4044618681712,9.22909489028631,9439
B77,cimitero di chiaravalle,12321,3,45.4122928268584,9.2293727845321,9439
B77,"via s. arialdo, 90",12323,4,45.4144678125281,9.2327727477844,9439
B77,abbazia di chiaravalle,12593,5,45.4170087470203,9.23606667911035,9439
B77,via s. arialdo via s. bernardo,12595,6,45.4184097249891,9.23744970790325,9439
B77,"via s. dionigi, 121",12325,7,45.4251146740785,9.23164873040075,9439
B77,"via s. dionigi, 99",12324,8,45.4290115772228,9.2274267551993,9439
B77,via ravenna v.le omero,12334,9,45.4321815913879,9.22367478405093,9439
B77,via ravenna via barabino,12330,10,45.4331885642389,9.2222817993211,9439
B77,via cinquecento via ravenna,12328,11,45.4351315393247,9.22052679262724,9439
B77,p.le gabriele rosa,12332,12,45.4369625099885,9.22339374836648,9439
B77,v.le martini,12350,13,45.4389234843978,9.22425574895125,9439
B77,corvetto m3,12344,14,45.4409154387767,9.22261970554695,9439
B77,c.so lodi via sacconi,12345,15,45.4417064102219,9.22103975661315,9439
B77,brenta m3,17741,16,45.4428740698109,9.21864231611921,9439
B77,brenta m3,12039,17,45.4439333834125,9.21645176937589,9439
B77,c.so lodi via scrivia,12038,18,45.444846374369,9.21456980347967,9439
B77,p.ta romana fs,12034,19,45.4457993641273,9.21301185776064,9439
B77,lodi m3,12032,20,45.4469543491495,9.21112487610565,9439
B76,gozzoli,18095,1,45.4472307405703,9.098619894586,9927
B76,bisceglie m1,10210,2,45.455038987859,9.1125389913326,9927
B76,bisceglie m1,17538,3,45.4548039688574,9.11216903570047,9927
B75,cascina gobba m2,12900,1,45.5114597752439,9.26055381963985,5492
B75,via padova via rizzoli,12896,2,45.5114217822845,9.25833886622878,5492
B75,"via rizzoli, 79",12895,3,45.5086968047919,9.2555149413428,5492
B75,"via rizzoli, 45",12889,4,45.506897824267,9.25312595458801,5492
B75,crescenzago m2,12877,5,45.5042048444337,9.24968404376513,5492
B75,via civitavecchia via orbetello,12781,6,45.5021218082694,9.24696207427162,5492
B75,cimiano m2,12771,7,45.4991768719127,9.24142315566008,5492
B75,via monfalcone via marazzani,12763,8,45.4971168789754,9.23877623814641,5492
B75,via monfalcone via sangro,12738,9,45.4943429280203,9.23737624812256,5492
B75,p.le udine via carnia,12731,10,45.4917969452569,9.23665829211462,5492
B75,via feltre via crescenzago,12740,11,45.4911859712914,9.24075624462352,5492
B75,via crescenzago via pisani dossi,12741,12,45.4875779498548,9.24218921401937,5492
B75,p.za gobetti,12510,13,45.4857419467365,9.23323736917948,5492
B75,stazione lambrate m2,12700,14,45.4851789572366,9.23555732588298,5492
B75,stazione lambrate m2,12706,15,45.4841740260103,9.23615032159276,5492
B75,via viotti via bassini,12713,16,45.4828260602499,9.23764132646042,5492
B75,via c. flaminio via saccardo,12716,17,45.4814770591835,9.24115926138055,5492
B75,via c. flaminio via dei canzi,12719,18,45.4801240774008,9.24235325418202,5492
B75,via bistolfi via s. faustino,12724,19,45.4773410677118,9.24308230211547,5492
B75,via trentacoste via bistolfi,12686,20,45.4738951794702,9.24472531273764,5492
B75,via pitteri,12856,21,45.4747251498313,9.24821520530675,5492
B74,p.za miani,10801,1,45.4380202954436,9.15501658965326,11356
B74,v.le faenza p.za miani,10760,2,45.4372952820799,9.15254664204489,11356
B74,v.le faenza via taranto,10505,3,45.4372263294421,9.15017664848411,11356
B74,v.le faenza via campari,10501,4,45.4371523098194,9.14778967325518,11356
B74,q.re teramo,17474,5,45.4353292995385,9.14509770416118,11356
B74,via mazzolari via campari,17475,6,45.4337313481126,9.14537773566384,11356
B74,via mazzolari via barona,17476,7,45.4315403134144,9.14798368446489,11356
B74,via de pretis via mazzolari,17477,8,45.4297283639605,9.15011369252298,11356
B74,"via de pretis, 55",10507,9,45.4284043540071,9.15072870637295,11356
B74,"via de pretis, 83",10756,10,45.428963435237,9.15328165221768,11356
B74,"via de pretis, 100",10771,11,45.429439364948,9.15723760908504,11356
B74,via s. vigilio via de pretis,10778,12,45.4289644045065,9.15955357523929,11356
B74,via s. vigilio via di rudini',10787,13,45.4319544086075,9.16096855422899,11356
B74,via s. vigilio (pronto soccorso),16071,14,45.4338023878775,9.16254951453768,11356
B74,via s. vigilio via s. paolino,10792,15,45.4346873779451,9.16382848935411,11356
B74,famagosta m2,13771,16,45.4363883592809,9.168735413084,11356
B73,aeroporto di linate (segrate),12926,1,45.4617463740258,9.27887492216787,10111
B73,v.le forlanini via circonvallazione (segrate),12921,2,45.4619153679429,9.27302598837201,10111
B73,v.le forlanini (aeronautica militare),12854,3,45.4620093201799,9.25937816029222,10111
B73,v.le forlanini (tangenziale est),12852,4,45.462066316312,9.25484118988739,10111
B73,forlanini,18119,5,45.4622198834408,9.24302396143867,10111
B73,forlanini,12647,6,45.4620752573601,9.23599341416289,10111
B73,v.le corsica via lomellina,12405,7,45.4622991975982,9.23095054400103,10111
B73,v.le corsica via battistotti sassi,12400,8,45.4623192209885,9.22826054010559,10111
B73,v.le campania v.le corsica,12391,9,45.4621861781186,9.22443256896103,10111
B73,p.za grandi,12127,10,45.4622211801877,9.22022165101852,10111
B73,p.za emilia,12125,11,45.4622481943692,9.21783966636936,10111
B73,via cadore c.so ventidue marzo,12111,12,45.4622541837805,9.21495869383894,10111
B73,p.za s. maria del suffragio,12098,13,45.4622821817372,9.21162277559805,10111
B73,p.za cinque giornate,12095,14,45.4623021841201,9.20802777322981,10111
B73,c.so p.ta vittoria (camera del lavoro),11820,15,45.4623401614245,9.20329684545175,10111
B73,palazzo di giustizia,17854,16,45.4627680559387,9.20063775504673,10111
B73,cavallotti,18155,17,45.4639899954684,9.19635980204224,10111
B73,via larga,17769,18,45.4628000308883,9.19420666985763,10111
B73,missori m3,17855,19,45.4602138283424,9.19020048227741,10111
B73,duomo m1 m3,16929,20,45.4617001553105,9.1893220581151,10111
B729,sesto (1 maggio) m1,13634,1,45.5422153442797,9.23902193909082,10109
B729,via m.te grappa v.le casiraghi (sesto s.g.),13636,2,45.5436473480821,9.23450903240754,10109
B729,via m.te grappa via picardi (sesto s.g.),13637,3,45.5452252675909,9.23151806617943,10109
B729,via stalingrado via curiel (cinisello b..),13638,4,45.5483322491419,9.22865407500949,10109
B729,via stalingrado via s.antonio (cinisello b..),13639,5,45.5520612263977,9.22695508755907,10109
B729,via s.antonio p.za italia(cinisello b..),13640,6,45.5521941964937,9.22276310037543,10109
B729,gorky monfalcone (cinisello b.),15919,7,45.5515242065122,9.2180391332388,10109
B729,via monfalcone via manzoni (cinisello b..),14601,8,45.5510001702713,9.21408617664646,10109
B729,via trieste via monfalcone (cinisello b.),14602,9,45.5508241625073,9.21173021158841,10109
B729,via dante via trieste (cinisello b..),14604,10,45.5531181580759,9.21040322597551,10109
B729,via marconi via buonarroti (cinisello b..),14605,11,45.5520841346666,9.2048733062941,10109
B729,via marconi via togliatti (cinisello b..),14896,12,45.551351143817,9.20201035213669,10109
B729,via marconi via toti (cinisello b..),13668,13,45.5503201562256,9.19693840925675,10109
B729,via margherita via marconi (cusano m.no),13669,14,45.5503751292567,9.19505448328847,10109
B729,via dei fiori via edera (cusano m.no),13670,15,45.5498391375668,9.1901295174714,10109
B729,cusano (v.le unione),15920,16,45.5488791177719,9.18683257497946,10109
B729,via marconi via donizetti (cusano m.no),15129,17,45.5475451598123,9.18224661255406,10109
B729,via marconi via manzoni (cusano m.no),15130,18,45.5466981562718,9.17719369711866,10109
B729,via n. sauro via l. da vinci (cormano),15921,19,45.5454101374567,9.16900283955108,10109
B729,via filzi via nenni (cormano),15922,20,45.5447171172581,9.16488585938581,10109
B729,via filzi s.s. 35 (cormano),16810,21,45.5438280783568,9.1588019218988,10109
B729,comasina m3,13312,22,45.5282802917842,9.16345799572781,10109
B729,comasina m3,16811,23,45.5299052575593,9.16295796210409,10109
B728,cinisello (s.eusebio),13647,1,45.5704139666861,9.21247210855562,5967
B728,via cilea via macchiavelli (cinisello b.),13624,2,45.5661449804098,9.21546914645934,5967
B728,via giordano via cimarosa (cinisello b.),13625,3,45.5638170146132,9.2166241274875,5967
B728,via giordano via crisantemi (cinisello b.),13626,4,45.5591591072289,9.21886511904479,5967
B728,v.le rinascita p.za costa (cinisello b.),13627,5,45.556454106753,9.2190431716797,5967
B728,v.le rinascita via casati (cinisello b.),13657,6,45.5538281873404,9.2186681830309,5967
B728,via s.antonio p.za italia(cinisello b..),13630,7,45.5520911684567,9.22284810778828,5967
B728,via stalingrado via s.antonio (cinisello b..),13631,8,45.5515132314157,9.22746610239657,5967
B728,via stalingrado via curiel (cinisello b..),13658,9,45.5482972533293,9.2284680638037,5967
B728,v.le f.testi via dei partigiani (cinisello b.),14600,10,45.5454252928197,9.22375417152418,5967
B728,v.le f.testi via ferri (cinisello b.),13554,11,45.5430573139759,9.22105814675732,5967
B728,parco nord (ist. tecnico)(cinisello b.),13555,12,45.5374823414314,9.21789326479599,5967
B728,via milanese via carducci (sesto s.g.),13603,13,45.5319203763777,9.21755927535061,5967
B728,via milanese via caduti del lavoro (sesto s.g.),14191,14,45.5297424407831,9.21656133912399,5967
B728,v.le sarca via bignami,13604,15,45.5253834654885,9.21406939136203,5967
B728,v.le sarca via chiese,13605,16,45.5213285219151,9.21172341080071,5967
B728,v.le sarca via s. glicerio,13606,17,45.5191435401531,9.21056342263327,5967
B728,v.le sarca via la farina,13607,18,45.5152455869926,9.20837547134035,5967
B728,v.le sarca via pianell,13608,19,45.5080976507425,9.20437159711863,5967
B728,v.le sarca via rabolini,13609,20,45.5048526498475,9.20190864345747,5967
B728,via taramelli p.za a.claudio,16874,21,45.4907438232569,9.19361382749604,5967
B728,via gioia via galvani,11904,22,45.4877058708387,9.19668079205245,5967
B728,stazione centrale m2 m3,16875,23,45.4866238645082,9.20253769170821,5967
B727,sesto (1 maggio) m1,15862,1,45.5424673665744,9.2392179397506,9175
B727,via m.te grappa v.le casiraghi (sesto s.g.),13636,2,45.5436473480821,9.23450903240754,9175
B727,via m.te grappa via picardi (sesto s.g.),13637,3,45.5452252675909,9.23151806617943,9175
B727,v.le f.testi via dei partigiani (cinisello b.),14600,4,45.5454252928197,9.22375417152418,9175
B727,via ferri via gorki (cinisello b.),13659,5,45.5439092947968,9.21969717047849,9175
B727,parco nord (osp.bassini)(cinisello b.),13660,6,45.5463212143422,9.218285246033,9175
B727,via de sanctis via gozzano (cinisello b.),15857,7,45.5478392382379,9.21950118252795,9175
B727,via s.martino via martinelli (cinisello b.),15859,8,45.5513772098406,9.22194314810408,9175
B727,v.le rinascita via casati (cinisello b.),13656,9,45.5533361611268,9.21873214879396,9175
B727,v.le rinascita p.za costa (cinisello b.),13643,10,45.556155122016,9.21915115079459,9175
B727,via giordano via crisantemi (cinisello b.),13644,11,45.5592671184815,9.21894911342193,9175
B727,monte ortigara (cinisello b.),15860,12,45.5600341012728,9.21440317424069,9175
B727,via m.te ortigara via pasubio (cinisello b.),15863,13,45.5582470932595,9.20683128929057,9175
B727,via m.te ortigara via togliatti (cinisello b.),15864,14,45.5573000843152,9.20110636207865,9175
B727,via xxv aprile via degli olmi (cinisello b.),13666,15,45.5542970989051,9.19891639532277,9175
B727,v.le cooperazione v.le buffoli (cusano m.no),14078,16,45.5528201230112,9.19295348952349,9175
B727,v.le cooperazione via delle rose (cusano m.no),14958,17,45.5521410961827,9.18982149290029,9175
B727,v.le cooperazione via delle gardenie (cusano m.no),14959,18,45.5516191196835,9.18740054608039,9175
B727,v.le matteotti via como (cusano m.no),13685,19,45.5507730945364,9.18412758126451,9175
B727,v.le matteotti via d'azeglio (cusano m.no),13686,20,45.5502660945621,9.18066865629386,9175
B727,p.za trento e trieste (cusano m.no),13687,21,45.5497181207241,9.17669366474082,9175
B727,via zucchi via italia (cusano m.no),13688,22,45.5490051201732,9.17545371546667,9175
B727,stazione cormano-cusano fn,17851,23,45.5457247448326,9.17422511904608,9175
B713,bignami m5,17123,1,45.5263014419989,9.21260037715679,7621
B713,v.le testi (torretta)(sesto s.g.),17124,2,45.5305404188543,9.21472133516588,7621
B713,via milanese via f.lli bandiera (sesto s.g.),14097,3,45.534056369,9.21798925622355,7621
B713,via f.lli bandiera via ferrari (sesto s.g.),14098,4,45.5345873581815,9.222232208069,7621
B713,via f.lli bandiera via matteotti (sesto s.g.),14099,5,45.5346513935064,9.22501518141105,7621
B713,via f.lli bandiera via risorgimento (sesto s.g.),13971,6,45.5346314400217,9.22930812838089,7621
B713,sesto rondo' m1,12588,7,45.5342924103493,9.23159809898884,7621
B713,p.za repubblica (sesto s.g.),13972,8,45.5342674610347,9.23271710817761,7621
B713,via fiorani via savi (sesto s.g.),17128,9,45.5316014225067,9.23305811486222,7621
B713,via marsala via xxiv maggio (sesto s.g.),17129,10,45.5287014947975,9.23436410910827,7621
B713,v.le italia via xxiv maggio (sesto s.g.),17418,11,45.52884648453,9.23828003618163,7621
B713,via pace via ferrara (sesto s.g.),15045,12,45.5281245287454,9.24325201600596,7621
B713,via pace via volontari del sangue (sesto s.g.),15046,13,45.5281395499315,9.24690995756472,7621
B713,via marx via f.lli di dio (sesto s. g.),14021,14,45.526112556674,9.24739698127775,7621
B713,via livorno via f.lli di dio (sesto s.g.),14022,15,45.5253445742238,9.24887891492214,7621
B713,"via livorno, 89 (sesto s.g.)",14023,16,45.5231186003422,9.25063997239725,7621
B713,"via livorno, 236 (sesto s.g.)",14024,17,45.5210396497665,9.25035295521581,7621
B713,via marx via livorno (sesto s.g.),14025,18,45.5219396060592,9.24590596969009,7621
B713,via crescenzago via lombardia (sesto s.g.),14026,19,45.5201576083331,9.24333102325777,7621
B713,via crescenzago (cimitero) (sesto s.g.),17419,20,45.5227515584744,9.24111603854262,7621
B713,v.le rimembranze via f.lli di dio (sesto s.g.),17420,21,45.5237805413359,9.24103405393369,7621
B713,sesto s.g. (v. rimembranze),17416,22,45.527674534126,9.24096803002614,7621
B712,cinisello (via musu),15865,1,45.5586230605338,9.2130492096504,10798
B712,monte ortigara (cinisello b.),15853,2,45.5599700936248,9.21455914884245,10798
B712,via copernico via u.giordano (cinisello b.),16095,3,45.5611050669509,9.21908213718876,10798
B712,via copernico via lincoln (cinisello b.),16097,4,45.5600811029984,9.2263049752569,10798
B712,"via de vizzi, 12 (cinisello b.)",16099,5,45.5601071055926,9.22911098174999,10798
B712,via brodolini via de vizzi (cinisello b.),16101,6,45.5589881277475,9.23294392928744,10798
B712,via lavoratori via brodolini (cinisello b.),16103,7,45.5573701811286,9.23393695833603,10798
B712,via lavoratori via pacinotti (cinisello b.),16105,8,45.5576651417573,9.23714587383922,10798
B712,via castaldi (centro comm.)(cinisello b.),16107,9,45.5569751931119,9.24321786683159,10798
B712,biagi ,19087,10,45.5563009677013,9.24931401740783,10798
B712,via valtellina via f.lli bandiera (cinisello b.),16111,11,45.556593217203,9.25227572243712,10798
B712,v.le gramsci cavalc. vulcano (sesto s.g.),16112,12,45.5513572628013,9.24737381963474,10798
B712,l.go levrino (sesto s.g.),16114,13,45.549077258095,9.24512586601283,10798
B712,v.le casiraghi v.le testi (sesto s.g.),16970,14,45.5484822539392,9.23677898714388,10798
B712,via bellini v.le casiraghi (sesto s.g.),14033,15,45.5463562649097,9.23690095466483,10798
B712,via bellini via boccaccio (sesto s.g.),15184,16,45.5453592874752,9.23967991711507,10798
B712,sesto (1 maggio) m1,13634,17,45.5422153442797,9.23902193909082,10798
B71,via voltri via ovada,10770,1,45.4361263245811,9.15449961399295,11349
B71,via voltri via di rudini',10763,2,45.4343803776922,9.15446159856847,11349
B71,ospedale san paolo,10781,3,45.4329843717687,9.15886656091789,11349
B71,via s. vigilio via di rudini',10786,4,45.431883341756,9.16081955188976,11349
B71,via de nicola via s. vigilio,10780,5,45.4306843840733,9.15846058749134,11349
B71,via de nicola via voltri,10773,6,45.4312903592528,9.15633961159111,11349
B71,via de pretis via boffalora,10758,7,45.4309103921102,9.15213668967434,11349
B71,via de pretis via mazzolari,10503,8,45.4298984017732,9.15077067680124,11349
B71,"via de pretis, 55",10507,9,45.4284043540071,9.15072870637295,11349
B71,via cascina bianca via de pretis,10754,10,45.4278163716126,9.15232467470784,11349
B71,"via cascina bianca, 9",10753,11,45.4264064248323,9.15369665079254,11349
B71,via cascina bianca via de finetti,10750,12,45.4250104273771,9.15756064081196,11349
B71,via s. paolino via danusso,10784,13,45.4281493904474,9.15975857922376,11349
B71,"via s. paolino, 16",10791,14,45.4305063831281,9.16376049375939,11349
B71,via s. paolino via s. vigilio,10795,15,45.434465387583,9.1647494745557,11349
B71,famagosta m2,17085,16,45.4372213207909,9.16955038875835,11349
B709,cologno (s.maurizio),15814,1,45.5478353596333,9.26565659250821,7285
B709,via battisti via v.veneto (cologno m.se),13862,2,45.5457853849029,9.26872456592858,7285
B709,via bergamo via garibaldi (cologno m.se),15815,3,45.5439094291269,9.26654960112658,7285
B709,"v.le spagna, 141 (cologno m.se)",14149,4,45.5415164031578,9.26492562468812,7285
B709,v.le spagna via barcellona (sesto s.g.),14150,5,45.5379964495246,9.26521165932454,7285
B709,via buonarroti v.le spagna (cologno m.se),17137,6,45.5328365491082,9.26738562954343,7285
B709,v.le europa via cavallotti (cologno m.se),14140,7,45.5267436138307,9.26552975216836,7285
B709,v.le europa via belgio (cologno m.se),14141,8,45.5228916236737,9.26439577722727,7285
B709,via ingegnoli via francia (cologno m.se),14142,9,45.520493678179,9.26678473300776,7285
B709,via milano via ingegnoli (cologno m.se),17342,10,45.5191877110898,9.26688974802484,7285
B709,via merano via giovanni xxiii (cologno m.se),17172,11,45.522741680034,9.27334064877126,7285
B709,cologno sud m2,17107,12,45.5197447059487,9.27397861254615,7285
B708,sesto rondo' m1,12589,1,45.5343154091671,9.23103908590456,10388
B708,via roma via firenze (sesto s.g.),15214,2,45.5327194062654,9.23017311816252,10388
B708,carducci,18485,3,45.5308174208447,9.22659115854716,10388
B708,via carducci via s.f. d'assisi (sesto s.g.),17671,4,45.5314577873008,9.22171890544243,10388
B708,parco nord clerici (sesto s.g.),14121,5,45.5334923974569,9.21383032506482,10388
B708,parco nord (ist. tecnico)(cinisello b.),14102,6,45.5369673348634,9.21697928053547,10388
B708,"via clerici, 370 (bresso)",14122,7,45.5331093399755,9.20784743159692,10388
B708,v.le gramsci fronte civ.8 (bresso),17595,8,45.5337213123814,9.19859155794303,10388
B708,via 25 aprile via matteotti (bresso),16842,9,45.5365142799626,9.19829846670507,10388
B708,via grandi via don sturzo (bresso),15465,10,45.5417852242643,9.19787249215094,10388
B708,"via don minzoni, 52 (bresso)",15466,11,45.5435972024534,9.19630348867892,10388
B708,bresso (don minzoni),14087,12,45.5425602333992,9.18964353997266,10388
B707,cologno (v. giordano),17118,1,45.5420424507018,9.27583651020482,6844
B707,via mozart via campania (cologno m.se),17141,2,45.5404494861405,9.28208541447607,6844
B707,via mozart via imbersago (cologno m.se),17119,3,45.539982493432,9.28658036670297,6844
B707,via porta via guzzina (cologno m.se),17115,4,45.5413094748563,9.29116634996785,6844
B707,via imbersago via taormina (cologno m.se),17116,5,45.5412755032833,9.28830639007569,6844
B707,via roma (tang. est) (cologno m.se),17120,6,45.5375465419372,9.28557440954917,6844
B707,c.so roma via boccaccio (cologno m.se),15211,7,45.5347775738715,9.28349341786222,6844
B707,via roma via 4 strade (cologno m.se),17121,8,45.5319036062565,9.28135048638015,6844
B707,via milano via s.margherita (cologno m.se),17122,9,45.5274686279245,9.2775175560327,6844
B707,via merano via giovanni xxiii (cologno m.se),17172,10,45.522741680034,9.27334064877126,6844
B707,cologno sud m2,14144,11,45.5206136790684,9.27505066773732,6844
B707,via val di stava via trento (cologno m.se),14901,12,45.5240506592842,9.27914558178537,6844
B707,via val di stava via 25 aprile (cologno m.se),14902,13,45.5253506430072,9.28143153006653,6844
B707,via vimodrone (cologno m.se),14565,14,45.52462067513,9.28592347985454,6844
B707,via galvani (cologno m.se),14566,15,45.5243896962241,9.28756048010337,6844
B707,via carducci via pirandello (cologno m.se),13875,16,45.5259416921154,9.29166238223736,6844
B707,via longarone (cimitero)(cologno m.se),15574,17,45.5273766863656,9.29368534894927,6844
B707,via chioggia (cologno m.se),13815,18,45.5288486655884,9.29417734079685,6844
B707,via ginestrino via micca (cologno m.se),13816,19,45.5302056545379,9.29438035467185,6844
B707,via corridoni (cologno m.se),14550,20,45.5312676352343,9.29250034947824,6844
B707,via l. da vinci (scuole) (cologno m.se),13822,21,45.5345546194613,9.29349834651865,6844
B707,cologno nord m2,13823,22,45.5352165622825,9.2908233822014,6844
B707,cologno nord m2,14551,23,45.534318570209,9.29081939255794,6844
B707,cologno nord m2,15216,24,45.5355045348245,9.29200937585957,6844
B705,comasina m3,16797,1,45.5295822972439,9.16300196533933,5799
B705,via comasina via novate,16841,2,45.5310712771712,9.1622819626563,5799
B705,s.s.35 dei giovi sovrap. mi-bg (cormano),13298,3,45.5355931876417,9.16075398212354,5799
B705,via gramsci s.s.35 (cormano),15906,4,45.5380761481757,9.16092094883419,5799
B705,via gramsci via molinazzo (cormano),15907,5,45.5395061847614,9.1680038596145,5799
B705,via liberta' via negri (cormano),14058,6,45.5433271794956,9.17230077209107,5799
B705,via n. sauro via l. da vinci (cormano),15908,7,45.5458681276975,9.16948082591449,5799
B705,via l. da vinci via 24 maggio (cormano),15909,8,45.5494740430944,9.1687118075599,5799
B705,via 24 maggio via p. della francesca(cormano),15932,9,45.549618094809,9.16533883038553,5799
B705,via 24 maggio via po (cormano),16590,10,45.5489420295919,9.15972193372306,5799
B705,via del lavoro via marconi (cormano),16591,11,45.551874992845,9.15732691964161,5799
B705,cormano (via zara),16587,12,45.5498040570991,9.15388899969538,5799
B702,cologno nord m2,13880,1,45.5354335599235,9.29196232772392,9982
B702,cologno nord m2,13871,2,45.5341255602118,9.29123334514414,9982
B702,via pascoli via neruda (cologno m.se),13872,3,45.5301826284825,9.28927941339059,9982
B702,via neruda via brennero (cologno m.se),14589,4,45.5297196164407,9.28711645970169,9982
B702,via dalla chiesa via dall'acqua (cologno m.se),14898,5,45.5287696356725,9.28374749651509,9982
B702,cologno centro m2,13900,6,45.5282836368805,9.28175850426893,9982
B702,via visconti p.za a.moro (cologno m.se),13901,7,45.5298016045358,9.27758255579722,9982
B702,p.za castello via indipendenza (cologno m.se),13902,8,45.5287666118606,9.2757675731683,9982
B702,via cavallotti via emilia (cologno m.se),13903,9,45.5284126026962,9.26956567210489,9982
B702,via di vittorio (tang. est) (sesto s.g.),13905,10,45.5270645805285,9.25853581874264,9982
B702,via di vittorio via martesana (sesto s.g.),13906,11,45.5268255663737,9.25645287054317,9982
B702,via grandi via pisa (sesto s.g.),13907,12,45.5311885440764,9.25194282308761,9982
B702,via cantore v.le edison (sesto s.g.),13908,13,45.5335514328065,9.24735990167347,9982
B702,v.le italia via cantore (sesto s.g.),15023,14,45.5355724155015,9.24434792936252,9982
B702,via mazzini via cairoli (sesto s.g.),15024,15,45.5383184429319,9.24331090423191,9982
B702,via g. d'arco via acciaierie (sesto s.g.),15025,16,45.5385243875408,9.23831198037181,9982
B702,sesto (1 maggio) m1,13912,17,45.5408053392945,9.23761096687148,9982
B702,via m.te grappa v.le casiraghi (sesto s.g.),13636,18,45.5436473480821,9.23450903240754,9982
B702,via matteotti via picardi (sesto s.g.),14038,19,45.5434033263808,9.23072704613027,9982
B702,via matteotti via l. da vinci (sesto s.g.),14039,20,45.5417413351093,9.22951406837112,9982
B702,via matteotti via sardegna (sesto s.g.),14040,21,45.5401463058972,9.22833607704564,9982
B702,via matteotti via leopardi (sesto s.g.),13968,22,45.5388093562623,9.22734413066498,9982
B702,via matteotti (ospedale) (sesto s.g.),13969,23,45.5362293910339,9.2254021550943,9982
B702,via saint denis via leopardi (sesto s.g.),15125,24,45.5386233095954,9.22218317915366,9982
B702,"v.le f.testi, 128 (cinisello b.)",14002,25,45.5395533557657,9.22001420613801,9982
B702,via ferri via gorki (cinisello b.),13659,26,45.5439092947968,9.21969717047849,9982
B702,parco nord (osp.bassini)(cinisello b.),13660,27,45.5463212143422,9.218285246033,9982
B702,via de sanctis via gozzano (cinisello b.),15857,28,45.5478392382379,9.21950118252795,9982
B702,via s.martino via martinelli (cinisello b.),15859,29,45.5513772098406,9.22194314810408,9982
B702,v.le rinascita via casati (cinisello b.),13656,30,45.5533361611268,9.21873214879396,9982
B702,v.le rinascita p.za costa (cinisello b.),13643,31,45.556155122016,9.21915115079459,9982
B702,via giordano via crisantemi (cinisello b.),13644,32,45.5592671184815,9.21894911342193,9982
B702,monte ortigara (cinisello b.),15860,33,45.5600341012728,9.21440317424069,9982
B702,via m.te santo via gran sasso (cinisello b.),15938,34,45.5604710665651,9.20981420172004,9982
B702,via risorgimento via guardi (cinisello b.),15861,35,45.5625700261922,9.21208316819804,9982
B702,via risorgimento via l. da vinci (cinisello b.),14005,36,45.5646589893004,9.21162417326737,9982
B702,via risorgimento via zandonai (cinisello b.),14006,37,45.5673519898553,9.21052718194621,9982
B702,via martiri palestinesi (cinisello b.),17108,38,45.5673849651481,9.20765018634538,9982
B702,via brunelleschi via bernini (cinisello b.),17109,39,45.5685919381664,9.20676420276029,9982
B702,cinisello (s.eusebio),16042,40,45.5703819643283,9.21279214286993,9982
B702,cinisello (s.eusebio),13647,41,45.5704139666861,9.21247210855562,9982
B702,via picasso via s.eusebio (cinisello b.),15852,42,45.5697859475376,9.20893016655303,9982
B701,sesto rondo' m1,12588,1,45.5342924103493,9.23159809898884,7275
B701,via gramsci via rovani (sesto s.g.),14111,2,45.5361873667593,9.23325705154223,7275
B701,v.le gramsci via adua (sesto s.g.),15219,3,45.5377554307184,9.23470204199435,7275
B701,via g. d'arco via acciaierie (sesto s.g.),13932,4,45.5378513887193,9.23830301560228,7275
B701,via g. d'arco via volta (sesto s.g.),13933,5,45.5367263849331,9.24044998566178,7275
B701,via g. d'arco v.le italia (sesto s.g.),13934,6,45.5348234682825,9.24202897855048,7275
B701,v.le italia via cantore (sesto s.g.),13853,7,45.5344434504664,9.24320497454435,7275
B701,v.le italia via mazzini (sesto s.g.),13854,8,45.5378384071885,9.24667689267016,7275
B701,v.le italia.578 (sesto s.g.),13855,9,45.5408204052977,9.24971883261619,7275
B701,v.le italia via lambro (sesto s.g.),13856,10,45.5442283840581,9.2532337945702,7275
B701,v.le italia (centro commerciale) (sesto s.g.),17339,11,45.5500543206878,9.25807366381062,7275
B701,v.le italia via tevere (sesto s.g.),13859,12,45.5528633109705,9.25971266328241,7275
B701,via s.m. al lambro via tagliamento (sesto s.g.),13860,13,45.5536522927708,9.2629775853439,7275
B701,via filzi via toti (cologno m.se),13861,14,45.5483793302999,9.26696858573548,7275
B701,via battisti via v.veneto (cologno m.se),13862,15,45.5457853849029,9.26872456592858,7275
B701,via curiel via battisti (cologno m.se),13863,16,45.5447474037252,9.27025053744072,7275
B701,v.le lombardia via piacenza (cologno m.se),13864,17,45.5439484346533,9.27499148795873,7275
B701,v.le lombardia via respighi (cologno m.se),13865,18,45.5409784518676,9.27499751780753,7275
B701,v.le lombardia via don sturzo (cologno m.se),15243,19,45.5388764877955,9.27491556767684,7275
B701,v.le lombardia v.le toscana (cologno m.se),13867,20,45.5370674999407,9.27483251470638,7275
B701,v.le lombardia via sanzio (cologno m.se),13868,21,45.5353395385267,9.27475456122728,7275
B701,via galilei via 4 strade (cologno m.se),13869,22,45.5320705691245,9.27635757024599,7275
B701,p.za castello via indipendenza (cologno m.se),13902,23,45.5287666118606,9.2757675731683,7275
B701,via cavallotti via emilia (cologno m.se),14153,24,45.5281526165855,9.27146560111928,7275
B701,via emilia v.le liguria (cologno m.se),14154,25,45.5253366250595,9.27239065180572,7275
B701,via emilia via milano (cologno m.se),15244,26,45.5241236303466,9.27301862372145,7275
B701,via merano via giovanni xxiii (cologno m.se),17172,27,45.522741680034,9.27334064877126,7275
B701,cologno sud m2,17107,28,45.5197447059487,9.27397861254615,7275
B700,sesto (1 maggio) m1,14013,1,45.5420203310662,9.23895594268866,8599
B700,sesto (1 maggio) m1,14035,2,45.542142309588,9.23885194160531,8599
B700,via bellini via boccaccio (sesto s.g.),14036,3,45.5454773423077,9.23964492560905,8599
B700,via bellini v.le casiraghi (sesto s.g.),14037,4,45.5464982938545,9.23686996574763,8599
B700,via m.te grappa v.le casiraghi (sesto s.g.),13636,5,45.5436473480821,9.23450903240754,8599
B700,via matteotti via picardi (sesto s.g.),14038,6,45.5434033263808,9.23072704613027,8599
B700,via matteotti via l. da vinci (sesto s.g.),14039,7,45.5417413351093,9.22951406837112,8599
B700,via matteotti via sardegna (sesto s.g.),14040,8,45.5401463058972,9.22833607704564,8599
B700,via matteotti via leopardi (sesto s.g.),13968,9,45.5388093562623,9.22734413066498,8599
B700,via matteotti (ospedale) (sesto s.g.),13969,10,45.5362293910339,9.2254021550943,8599
B700,via f.lli bandiera via matteotti (sesto s.g.),14099,11,45.5346513935064,9.22501518141105,8599
B700,via f.lli bandiera via risorgimento (sesto s.g.),13971,12,45.5346314400217,9.22930812838089,8599
B700,sesto rondo' m1,12588,13,45.5342924103493,9.23159809898884,8599
B700,p.za repubblica (sesto s.g.),13972,14,45.5342674610347,9.23271710817761,8599
B700,via marelli via modena (sesto s.g.),13973,15,45.5325664503468,9.23087109363668,8599
B700,via marelli via cavallotti (sesto s.g.),13974,16,45.5299745004453,9.22981814635766,8599
B700,via marelli via xxiv maggio (sesto s.g.),13975,17,45.5280634717982,9.22928517468849,8599
B700,v.le italia (sesto marelli m1),13976,18,45.5246675592594,9.22950718928606,8599
B700,v.le italia via oberdan (sesto s.g.),13849,19,45.5261124900764,9.23263115268956,8599
B700,"v.le italia, 208 (sesto s.g.)",13850,20,45.5282014782607,9.23668608195103,8599
B700,v.le italia via xxiv maggio (sesto s.g.),17130,21,45.5292794645935,9.23783801623473,8599
B700,v.le italia via rimembranze (sesto s.g.),13851,22,45.5312804649891,9.2399119826312,8599
B700,via marx v.le edison (sesto s.g.),14107,23,45.5315614603035,9.24574592053101,8599
B700,via pace via volontari del sangue (sesto s.g.),17669,24,45.5281347312845,9.24815939509636,8599
B700,via volontari del sangue via maffi (sesto s.g.),14048,25,45.529495515481,9.25238086417098,8599
B700,via grandi via pisa (sesto s.g.),13907,26,45.5311885440764,9.25194282308761,8599
B700,via cantore v.le edison (sesto s.g.),17410,27,45.5335775051331,9.2484928957274,8599
B700,via marzabotto v.le edison (sesto s.g.),17411,28,45.534266465212,9.25067284136848,8599
B700,via marzabotto via forli' (sesto s.g.),14016,29,45.5335654945966,9.25392083303047,8599
B700,sesto s.g. (cimitero),15188,30,45.5327585340238,9.2585747569744,8599
B700,sesto s.g. (cimitero),14028,31,45.5345405024085,9.25829475061928,8599
B70,cimitero di bruzzano,11697,1,45.5289173508477,9.18127072841541,10438
B70,via acerbi via martinazzoli,11393,2,45.5283162944782,9.17516584436128,10438
B70,via acerbi via capsoni,11391,3,45.5287373260292,9.17348481809655,10438
B70,q.re bruzzano,11390,4,45.5265773591786,9.17338283716188,10438
B70,via senna via fontanelli,11389,5,45.5250563623706,9.17359786242895,10438
B70,via casarsa p.za fortunato,11383,6,45.524334383239,9.17460585273878,10438
B70,ospedale galeazzi,11381,7,45.5226153895678,9.17414687966923,10438
B70,via da seregno via astesani,11372,8,45.5202303992686,9.17023995968123,10438
B70,via astesani v.le affori,11374,9,45.5179004366703,9.1708569298921,10438
B70,via astesani via zanoli,11377,10,45.5162464533815,9.17195796628664,10438
B70,p. rossi - armellini,17952,11,45.5150185995254,9.17276398436877,10438
B70,p.rossi,17978,12,45.5127417897768,9.17439209672293,10438
B70,rossi,18129,13,45.5104022867461,9.17600560898488,10438
B70,rossi,18130,14,45.5083750562341,9.17742813972976,10438
B70,via p. rossi via trevi,11368,15,45.5067445545969,9.1786049111543,10438
B70,dergano m3,16837,16,45.5047176229583,9.18000789921947,10438
B70,imbonati - bovio,17954,17,45.5020366445305,9.1818437483142,10438
B70,via imbonati via m.te s. genesio,11648,18,45.5000546764137,9.1832598664273,10438
B70,maciachini m3,11649,19,45.4977206977005,9.18478490012204,10438
B70,via lario via murat,17359,20,45.495593722608,9.19178881325823,10438
B70,zara m3 - m5,18518,21,45.493494640649,9.19287888946618,10438
B70,via farini v.le stelvio,15531,22,45.4946317410612,9.18564185760443,10438
B70,maciachini m3,15598,23,45.4979597206209,9.18459089993747,10438
B69,molino dorino m1,10192,1,45.504898366019,9.0938949665694,3734
B69,via cilea (motorizzazione civile),10099,2,45.5034613620963,9.09452395632546,3734
B69,"via cilea, 120",10190,3,45.5014134403789,9.09497598965521,3734
B69,via cilea via fichera,10101,4,45.499092412993,9.09805894156229,3734
B69,"via cilea, 106",10103,5,45.4971054750194,9.10049990829627,3734
B69,"via cilea, 70",10110,6,45.4956455243401,9.10320387262111,3734
B69,via cilea via bacchelli,10116,7,45.4966454828366,9.10660986747543,3734
B69,bonola m1,10114,8,45.4962415022582,9.11007980058143,3734
B69,"via betti, 99",10278,9,45.4940465579132,9.10907384036053,3734
B69,"via betti, 44",10279,10,45.4923975820612,9.11142183961,3734
B69,via cechov via betti,10282,11,45.4931625615723,9.1151707701041,3734
B69,via omodeo via cechov,10286,12,45.4923995818996,9.11787672476501,3734
B69,uruguay m1,10290,13,45.4934565589293,9.11992071120874,3734
B69,via croce via uruguay,10437,14,45.4933325669753,9.12358467239943,3734
B69,via croce via sant'elia,10441,15,45.4928965870029,9.12776962439854,3734
B69,v.le ghisallo via gallarate,10463,16,45.4970705528201,9.13077352526241,3734
B69,via gallarate via tibullo,10467,17,45.4958955766645,9.13485651676416,3734
B69,via gallarate via aniene,10673,18,45.4947036047947,9.13865951707556,3734
B69,via gallarate via somalia,10676,19,45.4935416336765,9.14237045847784,3734
B69,v.le certosa via grosotto,15554,20,45.4917536310346,9.14741535021849,3734
B69,v.le certosa v.le serra,15555,21,45.490191692443,9.15083232432493,3734
B69,p.za firenze,14978,22,45.4880217524965,9.15556931219227,3734
B69,p.za firenze,13778,23,45.4883527173935,9.15711026156442,3734
B68,via bergognone,10858,1,45.4528281240138,9.16422137204435,3001
B68,p.za del rosario,10853,2,45.4547151032686,9.163176375184,3001
B68,via foppa via california,10040,3,45.4577613513204,9.1613923895645,3001
B68,p.za vesuvio,10884,4,45.4601470734432,9.16020543888886,3001
B68,p.le aquileia,10889,5,45.461427014982,9.1624794128182,3001
B68,v.le di p.ta vercellina via s. vittore,11205,6,45.4633710498916,9.165206342678,3001
B68,p.le baracca,11208,7,45.4656700130655,9.16595227073234,3001
B68,conciliazione m1,13237,8,45.4679930126726,9.16544830257378,3001
B68,via ariosto,11248,9,45.4699239448313,9.16556924220163,3001
B68,via pagano via mascheroni,10930,10,45.4708209316146,9.16437631263235,3001
B68,via rossetti via pallavicino,10925,11,45.47260694614,9.16218232038536,3001
B68,via rossetti l.go camus,10919,12,45.4738578765378,9.1605833257175,3001
B68,p.le giulio cesare,10912,13,45.4735149241559,9.15621336998755,3001
B68,amendola (fieramilanocity) m1,10902,14,45.4747948361056,9.15158844349984,3001
B68,p.le arduino,10671,15,45.4779058714059,9.15048842527992,3001
B68,via silva via albani,10668,16,45.4791058387611,9.14871342807493,3001
B68,via albani via vigliani,10665,17,45.4809807630523,9.14621545090125,3001
B68,via albani p.za stuparich,10661,18,45.4824727752696,9.14423446631534,3001
B68,p.za stuparich,10649,19,45.4836547402836,9.14223851228659,3001
B68,v.le salmoiraghi via montichiari,10642,20,45.4852016847337,9.13913853435718,3001
B68,qt8 m1,10447,21,45.4864887109349,9.136206545342,3001
B68,via terzaghi via sant'elia,10445,22,45.4873386577068,9.13076857910605,3001
B68,lampugnano m1,15091,23,45.4894626161074,9.12434468424116,3001
B68,via cechov via natta,10288,24,45.4895936233957,9.11967873940881,3001
B68,via omodeo via cechov,10286,25,45.4923995818996,9.11787672476501,3001
B68,uruguay m1,10290,26,45.4934565589293,9.11992071120874,3001
B68,via uruguay via quarenghi,10439,27,45.4941305614779,9.1241536182591,3001
B68,via uruguay via sem benelli,10310,28,45.4959315633499,9.12295267081653,3001
B68,via uruguay via kant,10300,29,45.4971505294831,9.11981670820387,3001
B68,"via uruguay, 34",10298,30,45.4971715131113,9.116530753775,3001
B68,via quarenghi (centro commerciale),10295,31,45.4973005204471,9.11366375181947,3001
B68,bonola m1,15305,32,45.496565504282,9.11075678888146,3001
B67,p.le baracca,11211,1,45.4667740110917,9.1651523384651,11135
B67,via g. d'arezzo,12935,2,45.4682259460768,9.16304628212068,11135
B67,pagano m1,10917,3,45.4685649288676,9.1593593743139,11135
B67,wagner m1,10911,4,45.4680199645904,9.15619342398314,11135
B67,p.za piemonte,10868,5,45.4662807451381,9.154588010979,11135
B67,p.za sicilia,10860,6,45.4636610210174,9.15235451071444,11135
B67,via sardegna p.le tripoli,10600,7,45.4613540534972,9.15034248897607,11135
B67,p.le tripoli,10588,8,45.4600120116573,9.14676556801762,11135
B67,v.le c. da forli' via marostica,10577,9,45.4606879789722,9.14298359781409,11135
B67,p.le bande nere v.le c. da forli',10570,10,45.4613810085959,9.1390546521174,11135
B67,bande nere m1,10571,11,45.4619329497227,9.13696166870049,11135
B67,via f.ze armate v.le pisa,10385,12,45.4631949417322,9.13476670050497,11135
B67,via f.ze armate p.za bettini,10383,13,45.4631009340137,9.13105173686292,11135
B67,via primaticcio via f.ze armate,10374,14,45.4630099436554,9.12722577645713,11135
B67,via f.ze armate via labus,12966,15,45.4622089402027,9.12344685571155,11135
B67,via f.ze armate via saint bon,10232,16,45.4612689417388,9.11907091829882,11135
B67,via f.ze armate via olivieri,10231,17,45.460699910379,9.11634991921111,11135
B67,via f.ze armate via osteno,10223,18,45.4603019479445,9.11371100650581,11135
B67,via f.ze armate via sella nuova,10069,19,45.4605669241155,9.10966303397285,11135
B67,via f.ze armate via nikolajevka,10065,20,45.459688924517,9.10476806494149,11135
B67,via f.ze armate via cividale,10064,21,45.4595478754524,9.10149812514696,11135
B67,via f.ze armate via f.lli di dio,10060,22,45.4601998736632,9.09784116952623,11135
B67,via cabella ,19595,23,45.4598201353865,9.09518997667973,11135
B67,via cabella via da rosciate,10154,24,45.4589488998596,9.09230723277237,11135
B67,via cabella via gozzoli,10150,25,45.4583159058117,9.09012024220543,11135
B67,via mosca via val d'intelvi,10145,26,45.4595948608089,9.08833726534682,11135
B67,via val d'intelvi via cusago,10144,27,45.4614598389586,9.08696429290039,11135
B67,via romero,19596,28,45.4643865881191,9.08502143464443,11135
B67,via q.to romano via budrio,10167,29,45.466955745125,9.08520830515586,11135
B67,via diotti,10171,30,45.4690697247418,9.08747528423215,11135
B67,via scanini,10172,31,45.4696757530138,9.08962622433343,11135
B66,linate (paese),12920,1,45.4465175269428,9.27098914632615,8657
B66,via archimede via pascoli (peschiera b.),12917,2,45.4447345372813,9.26943016812723,8657
B66,via vittorini via umiliati,12915,3,45.4444565209141,9.26535914070961,8657
B66,ospedale monzino,12906,4,45.4445714980969,9.26243023583371,8657
B66,v.le ungheria via mecenate,17697,5,45.4469044669156,9.25459494981988,8657
B66,l.go guerrieri gonzaga,12818,6,45.4452774918012,9.25039534884693,8657
B66,via bonfadini via del liri,12813,7,45.4451224417209,9.24923635099933,8657
B66,via bonfadini via sordello,12619,8,45.4447284837391,9.24610039454811,8657
B66,via bonfadini via salomone,12613,9,45.4443054790458,9.24189447548359,8657
B66,via salomone v.le ungheria,12616,10,45.4463454259426,9.24145545303534,8657
B66,via salomone via dione cassio,12634,11,45.4481684210758,9.24149348428305,8657
B66,via salomone via prudenzio,12635,12,45.4506214358666,9.24150546700554,8657
B66,via salomone via quintiliano,12636,13,45.4523893872441,9.24154843614236,8657
B66,"via salomone, 21",12637,14,45.4542433465125,9.24156145461431,8657
B66,p.za ovidio,12638,15,45.4564673286328,9.2415913972597,8657
B66,p.za cartagine,12627,16,45.4570152889037,9.23946045055054,8657
B66,via lombroso via vismara,12388,17,45.4562583044403,9.23154458110138,8657
B66,v.le molise,15781,18,45.4562222609869,9.22477659839219,8657
B66,v.le argonne via da cortona,12441,19,45.4676931903614,9.22723355069258,8657
B65,p.za abbiategrasso m2,16932,1,45.4306624359508,9.17679535495107,9747
B65,p.za abbiategrasso m2,11132,2,45.4299464820732,9.17696737777255,9747
B65,medeghino,11401,3,45.4313364731277,9.18047426878963,9747
B65,agrippa,11402,4,45.4326374469011,9.18302328728053,9747
B65,via valla p.za agrippa,11413,5,45.4340734170208,9.18550718526499,9747
B65,"via lampedusa, 13",11415,6,45.4357394246854,9.18776024222145,9747
B65,via antonini via lampedusa,11418,7,45.4376593867086,9.18789522415997,9747
B65,via bazzi via biondelli,11433,8,45.4398043613118,9.18790517750879,9747
B65,via bazzi via fontanili,11435,9,45.442789320973,9.18796014444499,9747
B65,via de angeli via ripamonti,17561,10,45.4432843713491,9.19747899013419,9747
B65,l.go isarco,17564,11,45.4444933743644,9.20614793811163,9747
